{
    "metadata": {
        "resultset": {
            "count": 4142,
            "offset": 0,
            "limit": 5000
        }
    },
"results":[{"categoria":"Localidad simple","centroide":{"lat":-40.847873780792,"lon":-65.83932745923},"departamento":{"id":"62084","nombre":"Valcheta"},"id":"62084010000","localidad_censal":{"id":"62084010","nombre":"Aguada Cecilio"},"municipio":{"id":"625168","nombre":"Aguada Cecilio"},"nombre":"AGUADA CECILIO","provincia":{"id":"62","nombre":"R\u00edo Negro"}},{"categoria":"Localidad simple","centroide":{"lat":-41.063901710239,"lon":-68.384381035305},"departamento":{"id":"62091","nombre":"25 de Mayo"},"id":"62091010000","localidad_censal":{"id":"62091010","nombre":"Aguada de Guerra"},"municipio":{"id":"625196","nombre":"Aguada de Guerra"},"nombre":"AGUADA DE GUERRA","provincia":{"id":"62","nombre":"R\u00edo Negro"}},{"categoria":"Localidad simple","centroide":{"lat":-39.978758838803,"lon":-68.868397987669},"departamento":{"id":"62035","nombre":"El Cuy"},"id":"62035010000","localidad_censal":{"id":"62035010","nombre":"Aguada Guzm\u00e1n"},"municipio":{"id":"625077","nombre":"Aguada Guzman"},"nombre":"AGUADA GUZMAN","provincia":{"id":"62","nombre":"R\u00edo Negro"}},{"categoria":"Localidad simple","centroide":{"lat":-38.979510657069,"lon":-67.828021398161},"departamento":{"id":"62042","nombre":"General Roca"},"id":"62042010000","localidad_censal":{"id":"62042010","nombre":"Allen"},"municipio":{"id":"620091","nombre":"Allen"},"nombre":"ALLEN","provincia":{"id":"62","nombre":"R\u00edo Negro"}},{"categoria":"Localidad simple","centroide":{"lat":-41.437253641649,"lon":-66.095077316737},"departamento":{"id":"62084","nombre":"Valcheta"},"id":"62084020000","localidad_censal":{"id":"62084020","nombre":"Arroyo Los Berros"},"municipio":{"id":"625147","nombre":"Arroyo los Berros"},"nombre":"ARROYO LOS BERROS","provincia":{"id":"62","nombre":"R\u00edo Negro"}},{"categoria":"Localidad simple","centroide":{"lat":-41.665393782219,"lon":-66.086013555091},"departamento":{"id":"62084","nombre":"Valcheta"},"id":"62084030000","localidad_censal":{"id":"62084030","nombre":"Arroyo Ventana"},"municipio":{"id":"625154","nombre":"Arroyo Ventana"},"nombre":"ARROYO VENTANA","provincia":{"id":"62","nombre":"R\u00edo Negro"}},{"categoria":"Localidad simple","centroide":{"lat":-41.095423591594,"lon":-63.909224085657},"departamento":{"id":"62007","nombre":"Adolfo Alsina"},"id":"62007010000","localidad_censal":{"id":"62007010","nombre":"Bah\u00eda Creek"},"municipio":{"id":null,"nombre":null},"nombre":"BAHIA CREEK","provincia":{"id":"62","nombre":"R\u00edo Negro"}},{"categoria":"Localidad simple","centroide":{"lat":-38.751322974485,"lon":-68.008553606159},"departamento":{"id":"62042","nombre":"General Roca"},"id":"62042020000","localidad_censal":{"id":"62042020","nombre":"Paraje Arroy\u00f3n (Bajo San Cayetano)"},"municipio":{"id":null,"nombre":null},"nombre":"BAJO SAN CAYETANO","provincia":{"id":"62","nombre":"R\u00edo Negro"}},{"categoria":"Localidad simple","centroide":{"lat":-38.724663335854,"lon":-68.158056091342},"departamento":{"id":"62042","nombre":"General Roca"},"id":"62042030000","localidad_censal":{"id":"62042030","nombre":"Barda del Medio"},"municipio":{"id":"620140","nombre":"Contralmirante Cordero"},"nombre":"BARDA DEL MEDIO","provincia":{"id":"62","nombre":"R\u00edo Negro"}},{"categoria":"Localidad simple","centroide":{"lat":-39.030964133584,"lon":-67.786322865065},"departamento":{"id":"62042","nombre":"General Roca"},"id":"62042040000","localidad_censal":{"id":"62042040","nombre":"Barrio Blanco"},"municipio":{"id":"620091","nombre":"Allen"},"nombre":"BARRIO BLANCO","provincia":{"id":"62","nombre":"R\u00edo Negro"}},{"categoria":"Localidad simple","centroide":{"lat":-39.023009219023,"lon":-67.800503613299},"departamento":{"id":"62042","nombre":"General Roca"},"id":"62042050000","localidad_censal":{"id":"62042050","nombre":"Barrio Calle Ciega N\u00ba 10"},"municipio":{"id":"620091","nombre":"Allen"},"nombre":"BARRIO CALLE CIEGA N? 10","provincia":{"id":"62","nombre":"R\u00edo Negro"}},{"categoria":"Localidad simple","centroide":{"lat":-39.043089146415,"lon":-67.752065842081},"departamento":{"id":"62042","nombre":"General Roca"},"id":"62042060000","localidad_censal":{"id":"62042060","nombre":"Barrio Calle Ciega N\u00ba 6"},"municipio":{"id":"620091","nombre":"Allen"},"nombre":"BARRIO CALLE CIEGA N? 6","provincia":{"id":"62","nombre":"R\u00edo Negro"}},{"categoria":"Localidad simple","centroide":{"lat":-39.06829633314,"lon":-67.638923690012},"departamento":{"id":"62042","nombre":"General Roca"},"id":"62042070000","localidad_censal":{"id":"62042070","nombre":"Barrio Canale"},"municipio":{"id":"620161","nombre":"Gral. Roca"},"nombre":"BARRIO CANALE","provincia":{"id":"62","nombre":"R\u00edo Negro"}},{"categoria":"Localidad simple","centroide":{"lat":-39.051649445128,"lon":-67.634585352333},"departamento":{"id":"62042","nombre":"General Roca"},"id":"62042080000","localidad_censal":{"id":"62042080","nombre":"Barrio Chacra Monte"},"municipio":{"id":"620161","nombre":"Gral. Roca"},"nombre":"BARRIO CHACRA MONTE","provincia":{"id":"62","nombre":"R\u00edo Negro"}},{"categoria":"Localidad simple","centroide":{"lat":-40.140571507192,"lon":-64.329742791578},"departamento":{"id":"62028","nombre":"Conesa"},"id":"62028010000","localidad_censal":{"id":"62028010","nombre":"Barrio Colonia Conesa"},"municipio":{"id":"620084","nombre":"Gral. Conesa"},"nombre":"BARRIO COLONIA CONESA","provincia":{"id":"62","nombre":"R\u00edo Negro"}},{"categoria":"Localidad simple","centroide":{"lat":-39.041858726981,"lon":-67.807597054437},"departamento":{"id":"62042","nombre":"General Roca"},"id":"62042090000","localidad_censal":{"id":"62042090","nombre":"Barrio Costa Este"},"municipio":{"id":"620091","nombre":"Allen"},"nombre":"BARRIO COSTA ESTE","provincia":{"id":"62","nombre":"R\u00edo Negro"}},{"categoria":"Localidad simple","centroide":{"lat":-38.943596713188,"lon":-67.909513060099},"departamento":{"id":"62042","nombre":"General Roca"},"id":"62042100000","localidad_censal":{"id":"62042100","nombre":"Barrio Costa Linda"},"municipio":{"id":"620154","nombre":"Gral. Fdez. Oro"},"nombre":"BARRIO COSTA LINDA","provincia":{"id":"62","nombre":"R\u00edo Negro"}},{"categoria":"Localidad simple","centroide":{"lat":-39.028074023716,"lon":-67.840695046157},"departamento":{"id":"62042","nombre":"General Roca"},"id":"62042110000","localidad_censal":{"id":"62042110","nombre":"Barrio Costa Oeste"},"municipio":{"id":"620091","nombre":"Allen"},"nombre":"BARRIO COSTA OESTE","provincia":{"id":"62","nombre":"R\u00edo Negro"}},{"categoria":"Localidad simple","centroide":{"lat":-37.688801948065,"lon":-67.869548710746},"departamento":{"id":"62042","nombre":"General Roca"},"id":"62042115000","localidad_censal":{"id":"62042115","nombre":"Barrio Destacamento"},"municipio":{"id":"625105","nombre":"Pe\u00f1as Blancas"},"nombre":"BARRIO DESTACAMENTO","provincia":{"id":"62","nombre":"R\u00edo Negro"}},{"categoria":"Localidad simple","centroide":{"lat":-38.67192317216,"lon":-68.23432969249},"departamento":{"id":"62042","nombre":"General Roca"},"id":"62042120000","localidad_censal":{"id":"62042120","nombre":"Barrio El Labrador"},"municipio":{"id":"620098","nombre":"Campo Grande"},"nombre":"BARRIO EL LABRADOR","provincia":{"id":"62","nombre":"R\u00edo Negro"}},{"categoria":"Localidad simple","centroide":{"lat":-38.996548347047,"lon":-67.760006665102},"departamento":{"id":"62042","nombre":"General Roca"},"id":"62042130000","localidad_censal":{"id":"62042130","nombre":"Barrio El Maruchito"},"municipio":{"id":"620091","nombre":"Allen"},"nombre":"BARRIO EL MARUCHITO","provincia":{"id":"62","nombre":"R\u00edo Negro"}},{"categoria":"Localidad simple","centroide":{"lat":-39.063927017659,"lon":-67.512016279972},"departamento":{"id":"62042","nombre":"General Roca"},"id":"62042140000","localidad_censal":{"id":"62042140","nombre":"Barrio El Petr\u00f3leo"},"municipio":{"id":"620161","nombre":"Gral. Roca"},"nombre":"BARRIO EL PETROLEO","provincia":{"id":"62","nombre":"R\u00edo Negro"}},{"categoria":"Localidad simple","centroide":{"lat":-41.181420303309,"lon":-71.349343770797},"departamento":{"id":"62021","nombre":"Bariloche"},"id":"62021010000","localidad_censal":{"id":"62021010","nombre":"Barrio El Pilar"},"municipio":{"id":"620077","nombre":"San Carlos de Bariloche"},"nombre":"BARRIO EL PILAR","provincia":{"id":"62","nombre":"R\u00edo Negro"}},{"categoria":"Entidad","centroide":{"lat":-38.893711936315,"lon":-67.971068167392},"departamento":{"id":"62042","nombre":"General Roca"},"id":"62042330001","localidad_censal":{"id":"62042330","nombre":"Barrio Puente 83"},"municipio":{"id":"620133","nombre":"Cipolletti"},"nombre":"BARRIO EL TREINTA","provincia":{"id":"62","nombre":"R\u00edo Negro"}},{"categoria":"Localidad simple","centroide":{"lat":-39.001652251504,"lon":-67.850684225455},"departamento":{"id":"62042","nombre":"General Roca"},"id":"62042143000","localidad_censal":{"id":"62042143","nombre":"Barrio Emergente"},"municipio":{"id":"620091","nombre":"Allen"},"nombre":"BARRIO EMERGENTE","provincia":{"id":"62","nombre":"R\u00edo Negro"}},{"categoria":"Localidad simple","centroide":{"lat":-39.041876855319,"lon":-63.998590735766},"departamento":{"id":"62063","nombre":"Pichi Mahuida"},"id":"62063005000","localidad_censal":{"id":"62063005","nombre":"Barrio Esperanza"},"municipio":{"id":"620210","nombre":"R\u00eco Colorado"},"nombre":"BARRIO ESPERANZA","provincia":{"id":"62","nombre":"R\u00edo Negro"}},{"categoria":"Localidad simple","centroide":{"lat":-39.071916321907,"lon":-67.712910046039},"departamento":{"id":"62042","nombre":"General Roca"},"id":"62042150000","localidad_censal":{"id":"62042150","nombre":"Barrio Frontera"},"municipio":{"id":"620161","nombre":"Gral. Roca"},"nombre":"BARRIO FRONTERA","provincia":{"id":"62","nombre":"R\u00edo Negro"}},{"categoria":"Entidad","centroide":{"lat":-38.965598021074,"lon":-67.950955022041},"departamento":{"id":"62042","nombre":"General Roca"},"id":"62042330002","localidad_censal":{"id":"62042330","nombre":"Barrio Puente 83"},"municipio":{"id":"620133","nombre":"Cipolletti"},"nombre":"BARRIO GORETTI","provincia":{"id":"62","nombre":"R\u00edo Negro"}},{"categoria":"Localidad simple","centroide":{"lat":-39.041683810156,"lon":-67.734008142371},"departamento":{"id":"62042","nombre":"General Roca"},"id":"62042160000","localidad_censal":{"id":"62042160","nombre":"Barrio Guerrico"},"municipio":{"id":"620091","nombre":"Allen"},"nombre":"BARRIO GUERRICO","provincia":{"id":"62","nombre":"R\u00edo Negro"}},{"categoria":"Localidad simple","centroide":{"lat":-38.996644370884,"lon":-67.918146372622},"departamento":{"id":"62042","nombre":"General Roca"},"id":"62042170000","localidad_censal":{"id":"62042170","nombre":"Barrio Isla 10"},"municipio":{"id":"620154","nombre":"Gral. Fdez. Oro"},"nombre":"BARRIO ISLA 10","provincia":{"id":"62","nombre":"R\u00edo Negro"}},{"categoria":"Localidad simple","centroide":{"lat":-39.049464802457,"lon":-67.217793659392},"departamento":{"id":"62042","nombre":"General Roca"},"id":"62042180000","localidad_censal":{"id":"62042180","nombre":"Barrio La Barda"},"municipio":{"id":"620168","nombre":"Ingeniero Huergo"},"nombre":"BARRIO LA BARDA","provincia":{"id":"62","nombre":"R\u00edo Negro"}},{"categoria":"Localidad simple","centroide":{"lat":-39.075307062755,"lon":-67.539226191636},"departamento":{"id":"62042","nombre":"General Roca"},"id":"62042190000","localidad_censal":{"id":"62042190","nombre":"Barrio La Costa"},"municipio":{"id":"620161","nombre":"Gral. Roca"},"nombre":"BARRIO LA COSTA","provincia":{"id":"62","nombre":"R\u00edo Negro"}},{"categoria":"Localidad simple","centroide":{"lat":-39.092345047973,"lon":-67.200728187113},"departamento":{"id":"62042","nombre":"General Roca"},"id":"62042200000","localidad_censal":{"id":"62042200","nombre":"Barrio La Costa"},"municipio":{"id":"620168","nombre":"Ingeniero Huergo"},"nombre":"BARRIO LA COSTA","provincia":{"id":"62","nombre":"R\u00edo Negro"}},{"categoria":"Localidad simple","centroide":{"lat":-39.033181578906,"lon":-67.386247766072},"departamento":{"id":"62042","nombre":"General Roca"},"id":"62042210000","localidad_censal":{"id":"62042210","nombre":"Barrio La Defensa"},"municipio":{"id":"620112","nombre":"Cervantes"},"nombre":"BARRIO LA DEFENSA","provincia":{"id":"62","nombre":"R\u00edo Negro"}},{"categoria":"Localidad simple","centroide":{"lat":-39.037077423692,"lon":-67.782059452676},"departamento":{"id":"62042","nombre":"General Roca"},"id":"62042215000","localidad_censal":{"id":"62042215","nombre":"Barrio La Herradura"},"municipio":{"id":"620091","nombre":"Allen"},"nombre":"BARRIO LA HERRADURA","provincia":{"id":"62","nombre":"R\u00edo Negro"}},{"categoria":"Entidad","centroide":{"lat":-38.924584898838,"lon":-68.030789944251},"departamento":{"id":"62042","nombre":"General Roca"},"id":"62042400001","localidad_censal":{"id":"62042400","nombre":"Cipolletti"},"municipio":{"id":"620133","nombre":"Cipolletti"},"nombre":"BARRIO LA LOR","provincia":{"id":"62","nombre":"R\u00edo Negro"}},{"categoria":"Localidad simple","centroide":{"lat":-39.077258809709,"lon":-67.579499127956},"departamento":{"id":"62042","nombre":"General Roca"},"id":"62042230000","localidad_censal":{"id":"62042230","nombre":"Barrio La Ribera - Barrio APYCAR"},"municipio":{"id":"620161","nombre":"Gral. Roca"},"nombre":"BARRIO LA RIBERA - BARRIO APYCAR","provincia":{"id":"62","nombre":"R\u00edo Negro"}},{"categoria":"Localidad simple","centroide":{"lat":-39.02981121212,"lon":-67.500991184867},"departamento":{"id":"62042","nombre":"General Roca"},"id":"62042240000","localidad_censal":{"id":"62042240","nombre":"Puente Cero"},"municipio":{"id":"620161","nombre":"Gral. Roca"},"nombre":"BARRIO LAS ANGUSTIAS","provincia":{"id":"62","nombre":"R\u00edo Negro"}},{"categoria":"Localidad simple","centroide":{"lat":-39.051404789072,"lon":-67.346898606625},"departamento":{"id":"62042","nombre":"General Roca"},"id":"62042245000","localidad_censal":{"id":"62042245","nombre":"Barrio Luisillo"},"municipio":{"id":"620175","nombre":"Mainque"},"nombre":"BARRIO LUISILLO","provincia":{"id":"62","nombre":"R\u00edo Negro"}},{"categoria":"Localidad simple","centroide":{"lat":-39.082787309526,"lon":-67.652398554564},"departamento":{"id":"62042","nombre":"General Roca"},"id":"62042250000","localidad_censal":{"id":"62042250","nombre":"Barrio Mar del Plata"},"municipio":{"id":"620161","nombre":"Gral. Roca"},"nombre":"BARRIO MAR DEL PLATA","provincia":{"id":"62","nombre":"R\u00edo Negro"}},{"categoria":"Localidad simple","centroide":{"lat":-38.990144262718,"lon":-67.961309560025},"departamento":{"id":"62042","nombre":"General Roca"},"id":"62042260000","localidad_censal":{"id":"62042260","nombre":"Barrio Mar\u00eda Elvira"},"municipio":{"id":"620133","nombre":"Cipolletti"},"nombre":"BARRIO MARIA ELVIRA","provincia":{"id":"62","nombre":"R\u00edo Negro"}},{"categoria":"Localidad simple","centroide":{"lat":-39.130687401484,"lon":-66.894164971628},"departamento":{"id":"62042","nombre":"General Roca"},"id":"62042265000","localidad_censal":{"id":"62042265","nombre":"Barrio Mo\u00f1o Azul"},"municipio":{"id":"620119","nombre":"Chichinales"},"nombre":"BARRIO MO\u00d1O AZUL","provincia":{"id":"62","nombre":"R\u00edo Negro"}},{"categoria":"Localidad simple","centroide":{"lat":-39.090718395372,"lon":-67.589860346762},"departamento":{"id":"62042","nombre":"General Roca"},"id":"62042270000","localidad_censal":{"id":"62042270","nombre":"Barrio Mosconi"},"municipio":{"id":"620161","nombre":"Gral. Roca"},"nombre":"BARRIO MOSCONI","provincia":{"id":"62","nombre":"R\u00edo Negro"}},{"categoria":"Localidad simple","centroide":{"lat":-38.863727925973,"lon":-68.023190559624},"departamento":{"id":"62042","nombre":"General Roca"},"id":"62042280000","localidad_censal":{"id":"62042280","nombre":"Barrio Norte"},"municipio":{"id":"620133","nombre":"Cipolletti"},"nombre":"BARRIO NORTE","provincia":{"id":"62","nombre":"R\u00edo Negro"}},{"categoria":"Localidad simple","centroide":{"lat":-37.674827593901,"lon":-67.873652130682},"departamento":{"id":"62042","nombre":"General Roca"},"id":"62042297000","localidad_censal":{"id":"62042297","nombre":"Barrio Pinar"},"municipio":{"id":"625105","nombre":"Pe\u00f1as Blancas"},"nombre":"BARRIO PINAR","provincia":{"id":"62","nombre":"R\u00edo Negro"}},{"categoria":"Entidad","centroide":{"lat":-39.055737401237,"lon":-67.593530106102},"departamento":{"id":"62042","nombre":"General Roca"},"id":"62042450001","localidad_censal":{"id":"62042450","nombre":"General Roca"},"municipio":{"id":"620161","nombre":"Gral. Roca"},"nombre":"BARRIO PINO AZUL","provincia":{"id":"62","nombre":"R\u00edo Negro"}},{"categoria":"Localidad simple","centroide":{"lat":-40.05647449244,"lon":-64.472608763263},"departamento":{"id":"62028","nombre":"Conesa"},"id":"62028030000","localidad_censal":{"id":"62028030","nombre":"Barrio Planta Compresora de Gas"},"municipio":{"id":null,"nombre":null},"nombre":"BARRIO PLANTA COMPRESORA DE GAS","provincia":{"id":"62","nombre":"R\u00edo Negro"}},{"categoria":"Localidad simple","centroide":{"lat":-39.043028393796,"lon":-67.464204003917},"departamento":{"id":"62042","nombre":"General Roca"},"id":"62042310000","localidad_censal":{"id":"62042310","nombre":"Barrio Porvenir"},"municipio":{"id":"620112","nombre":"Cervantes"},"nombre":"BARRIO PORVENIR","provincia":{"id":"62","nombre":"R\u00edo Negro"}},{"categoria":"Entidad","centroide":{"lat":-38.796184831001,"lon":-68.073433434462},"departamento":{"id":"62042","nombre":"General Roca"},"id":"62042390001","localidad_censal":{"id":"62042390","nombre":"Cinco Saltos"},"municipio":{"id":"620126","nombre":"Cinco Saltos"},"nombre":"BARRIO PRESIDENTE PERON","provincia":{"id":"62","nombre":"R\u00edo Negro"}},{"categoria":"Entidad","centroide":{"lat":-38.965598021074,"lon":-67.950955022041},"departamento":{"id":"62042","nombre":"General Roca"},"id":"62042330003","localidad_censal":{"id":"62042330","nombre":"Barrio Puente 83"},"municipio":{"id":"620133","nombre":"Cipolletti"},"nombre":"BARRIO PUENTE 83","provincia":{"id":"62","nombre":"R\u00edo Negro"}},{"categoria":"Entidad","centroide":{"lat":-38.958964694403,"lon":-67.949241434219},"departamento":{"id":"62042","nombre":"General Roca"},"id":"62042330004","localidad_censal":{"id":"62042330","nombre":"Barrio Puente 83"},"municipio":{"id":"620133","nombre":"Cipolletti"},"nombre":"BARRIO PUENTE DE MADERA","provincia":{"id":"62","nombre":"R\u00edo Negro"}},{"categoria":"Localidad simple","centroide":{"lat":-39.126078574527,"lon":-67.103516505067},"departamento":{"id":"62042","nombre":"General Roca"},"id":"62042340000","localidad_censal":{"id":"62042340","nombre":"Barrio Santa Rita"},"municipio":{"id":"620182","nombre":"Villa Regina"},"nombre":"BARRIO SANTA RITA","provincia":{"id":"62","nombre":"R\u00edo Negro"}},{"categoria":"Entidad","centroide":{"lat":-38.93867947976,"lon":-67.944003355973},"departamento":{"id":"62042","nombre":"General Roca"},"id":"62042330005","localidad_censal":{"id":"62042330","nombre":"Barrio Puente 83"},"municipio":{"id":"620133","nombre":"Cipolletti"},"nombre":"BARRIO TRES LUCES","provincia":{"id":"62","nombre":"R\u00edo Negro"}},{"categoria":"Localidad simple","centroide":{"lat":-39.158537314523,"lon":-66.185606647713},"departamento":{"id":"62014","nombre":"Avellaneda"},"id":"62014010000","localidad_censal":{"id":"62014010","nombre":"Barrio Uni\u00f3n"},"municipio":{"id":"620021","nombre":"Chimpay"},"nombre":"BARRIO UNION","provincia":{"id":"62","nombre":"R\u00edo Negro"}},{"categoria":"Localidad simple","centroide":{"lat":-38.979186876102,"lon":-67.941976373184},"departamento":{"id":"62042","nombre":"General Roca"},"id":"62042350000","localidad_censal":{"id":"62042350","nombre":"Barrio Uni\u00f3n"},"municipio":{"id":"620154","nombre":"Gral. Fdez. Oro"},"nombre":"BARRIO UNION","provincia":{"id":"62","nombre":"R\u00edo Negro"}},{"categoria":"Localidad simple","centroide":{"lat":-40.884305883197,"lon":-70.02296344535},"departamento":{"id":"62070","nombre":"Pilcaniyeu"},"id":"62070005000","localidad_censal":{"id":"62070005","nombre":"Ca\u00f1ad\u00f3n Chileno"},"municipio":{"id":null,"nombre":null},"nombre":"CA\u00d1ADON CHILENO","provincia":{"id":"62","nombre":"R\u00edo Negro"}},{"categoria":"Localidad simple","centroide":{"lat":-37.881528862589,"lon":-67.794556970176},"departamento":{"id":"62042","nombre":"General Roca"},"id":"62042360000","localidad_censal":{"id":"62042360","nombre":"Catriel"},"municipio":{"id":"620105","nombre":"Catriel"},"nombre":"CATRIEL","provincia":{"id":"62","nombre":"R\u00edo Negro"}},{"categoria":"Localidad simple","centroide":{"lat":-39.725294373389,"lon":-68.493953326913},"departamento":{"id":"62035","nombre":"El Cuy"},"id":"62035020000","localidad_censal":{"id":"62035020","nombre":"Cerro Polic\u00eda"},"municipio":{"id":"620091","nombre":"Allen"},"nombre":"CERRO POLICIA","provincia":{"id":"62","nombre":"R\u00edo Negro"}},{"categoria":"Localidad simple","centroide":{"lat":-39.051578584663,"lon":-67.393056037807},"departamento":{"id":"62042","nombre":"General Roca"},"id":"62042370000","localidad_censal":{"id":"62042370","nombre":"Cervantes"},"municipio":{"id":"620112","nombre":"Cervantes"},"nombre":"CERVANTES","provincia":{"id":"62","nombre":"R\u00edo Negro"}},{"categoria":"Localidad simple","centroide":{"lat":-39.088163115504,"lon":-66.520954661381},"departamento":{"id":"62014","nombre":"Avellaneda"},"id":"62014020000","localidad_censal":{"id":"62014020","nombre":"Chelfor\u00f3"},"municipio":{"id":null,"nombre":null},"nombre":"CHELFORO","provincia":{"id":"62","nombre":"R\u00edo Negro"}},{"categoria":"Localidad simple","centroide":{"lat":-39.114881434741,"lon":-66.942515002999},"departamento":{"id":"62042","nombre":"General Roca"},"id":"62042380000","localidad_censal":{"id":"62042380","nombre":"Chichinales"},"municipio":{"id":"620119","nombre":"Chichinales"},"nombre":"CHICHINALES","provincia":{"id":"62","nombre":"R\u00edo Negro"}},{"categoria":"Localidad simple","centroide":{"lat":-39.165152731862,"lon":-66.144706927403},"departamento":{"id":"62014","nombre":"Avellaneda"},"id":"62014030000","localidad_censal":{"id":"62014030","nombre":"Chimpay"},"municipio":{"id":"620021","nombre":"Chimpay"},"nombre":"CHIMPAY","provincia":{"id":"62","nombre":"R\u00edo Negro"}},{"categoria":"Localidad simple","centroide":{"lat":-39.288454335045,"lon":-65.663280823108},"departamento":{"id":"62014","nombre":"Avellaneda"},"id":"62014040000","localidad_censal":{"id":"62014040","nombre":"Choele Choel"},"municipio":{"id":"620028","nombre":"Choele Choel"},"nombre":"CHOELE CHOEL","provincia":{"id":"62","nombre":"R\u00edo Negro"}},{"categoria":"Localidad simple con entidad","centroide":{"lat":-38.827562019718,"lon":-68.06609620552},"departamento":{"id":"62042","nombre":"General Roca"},"id":"62042390000","localidad_censal":{"id":"62042390","nombre":"Cinco Saltos"},"municipio":{"id":"620126","nombre":"Cinco Saltos"},"nombre":"CINCO SALTOS","provincia":{"id":"62","nombre":"R\u00edo Negro"}},{"categoria":"Entidad","centroide":{"lat":-38.840554100914,"lon":-68.062300579776},"departamento":{"id":"62042","nombre":"General Roca"},"id":"62042390002","localidad_censal":{"id":"62042390","nombre":"Cinco Saltos"},"municipio":{"id":"620126","nombre":"Cinco Saltos"},"nombre":"CINCO SALTOS","provincia":{"id":"62","nombre":"R\u00edo Negro"}},{"categoria":"Componente de localidad compuesta con entidad","centroide":{"lat":-38.924558895075,"lon":-68.035384250397},"departamento":{"id":"62042","nombre":"General Roca"},"id":"62042400000","localidad_censal":{"id":"62042400","nombre":"Cipolletti"},"municipio":{"id":"620133","nombre":"Cipolletti"},"nombre":"CIPOLLETTI","provincia":{"id":"62","nombre":"R\u00edo Negro"}},{"categoria":"Entidad","centroide":{"lat":-38.922059628178,"lon":-67.995549331385},"departamento":{"id":"62042","nombre":"General Roca"},"id":"62042400002","localidad_censal":{"id":"62042400","nombre":"Cipolletti"},"municipio":{"id":"620133","nombre":"Cipolletti"},"nombre":"CIPOLLETTI","provincia":{"id":"62","nombre":"R\u00edo Negro"}},{"categoria":"Localidad simple","centroide":{"lat":-41.244835004655,"lon":-70.034202941015},"departamento":{"id":"62091","nombre":"25 de Mayo"},"id":"62091020000","localidad_censal":{"id":"62091020","nombre":"Clemente Onelli"},"municipio":{"id":"625217","nombre":"Clemente Onelli"},"nombre":"CLEMENTE ONELLI","provincia":{"id":"62","nombre":"R\u00edo Negro"}},{"categoria":"Localidad simple","centroide":{"lat":-40.670608412616,"lon":-69.111254557999},"departamento":{"id":"62091","nombre":"25 de Mayo"},"id":"62091030000","localidad_censal":{"id":"62091030","nombre":"Colan Conhue"},"municipio":{"id":"625203","nombre":"Colan Conhu\u00e9"},"nombre":"COLAN CONUE","provincia":{"id":"62","nombre":"R\u00edo Negro"}},{"categoria":"Localidad simple","centroide":{"lat":-39.053168062878,"lon":-67.472967428649},"departamento":{"id":"62042","nombre":"General Roca"},"id":"62042147000","localidad_censal":{"id":"62042147","nombre":"Barrio F\u00e1tima"},"municipio":{"id":"620112","nombre":"Cervantes"},"nombre":"COLONIA FATIMA","provincia":{"id":"62","nombre":"R\u00edo Negro"}},{"categoria":"Localidad simple","centroide":{"lat":-39.036122925936,"lon":-64.013939056476},"departamento":{"id":"62063","nombre":"Pichi Mahuida"},"id":"62063010000","localidad_censal":{"id":"62063010","nombre":"Colonia Juli\u00e1 y Echarren"},"municipio":{"id":"620210","nombre":"R\u00eco Colorado"},"nombre":"COLONIA JULIA Y ECHARREN","provincia":{"id":"62","nombre":"R\u00edo Negro"}},{"categoria":"Localidad simple","centroide":{"lat":-41.094749736043,"lon":-71.505527376881},"departamento":{"id":"62021","nombre":"Bariloche"},"id":"62021020000","localidad_censal":{"id":"62021020","nombre":"Colonia Suiza"},"municipio":{"id":"620077","nombre":"San Carlos de Bariloche"},"nombre":"COLONIA SUIZA","provincia":{"id":"62","nombre":"R\u00edo Negro"}},{"categoria":"Localidad simple","centroide":{"lat":-41.029874675318,"lon":-70.269980649853},"departamento":{"id":"62070","nombre":"Pilcaniyeu"},"id":"62070010000","localidad_censal":{"id":"62070010","nombre":"Comallo"},"municipio":{"id":"620217","nombre":"Comallo"},"nombre":"COMALLO","provincia":{"id":"62","nombre":"R\u00edo Negro"}},{"categoria":"Localidad simple","centroide":{"lat":-41.063275511825,"lon":-67.596560097527},"departamento":{"id":"62049","nombre":"9 de julio"},"id":"62049010000","localidad_censal":{"id":"62049010","nombre":"Comic\u00f3"},"municipio":{"id":"625210","nombre":"Comico"},"nombre":"COMICO","provincia":{"id":"62","nombre":"R\u00edo Negro"}},{"categoria":"Localidad simple","centroide":{"lat":-41.88120217045,"lon":-66.940740427084},"departamento":{"id":"62049","nombre":"9 de julio"},"id":"62049020000","localidad_censal":{"id":"62049020","nombre":"Cona Niyeu"},"municipio":{"id":"625161","nombre":"Cona Niyeu"},"nombre":"CONA NIYEU","provincia":{"id":"62","nombre":"R\u00edo Negro"}},{"categoria":"Localidad simple","centroide":{"lat":-38.757006261199,"lon":-68.099497210487},"departamento":{"id":"62042","nombre":"General Roca"},"id":"62042410000","localidad_censal":{"id":"62042410","nombre":"Contralmirante Cordero"},"municipio":{"id":"620140","nombre":"Contralmirante Cordero"},"nombre":"CONTRALMIRANTE CORDERO","provincia":{"id":"62","nombre":"R\u00edo Negro"}},{"categoria":"Localidad simple","centroide":{"lat":-39.185829991575,"lon":-65.956319118127},"departamento":{"id":"62014","nombre":"Avellaneda"},"id":"62014050000","localidad_censal":{"id":"62014050","nombre":"Coronel Belisle"},"municipio":{"id":"620035","nombre":"Coronel Belisle"},"nombre":"CORONEL BELISLE","provincia":{"id":"62","nombre":"R\u00edo Negro"}},{"categoria":"Localidad simple","centroide":{"lat":-39.202691290161,"lon":-65.740917229696},"departamento":{"id":"62014","nombre":"Avellaneda"},"id":"62014060000","localidad_censal":{"id":"62014060","nombre":"Darwin"},"municipio":{"id":"620042","nombre":"Darwin"},"nombre":"DARWIN","provincia":{"id":"62","nombre":"R\u00edo Negro"}},{"categoria":"Localidad simple","centroide":{"lat":-41.069193422616,"lon":-71.16219332616},"departamento":{"id":"62070","nombre":"Pilcaniyeu"},"id":"62070020000","localidad_censal":{"id":"62070020","nombre":"Dina Huapi"},"municipio":{"id":"620273","nombre":"Dina Huapi"},"nombre":"DINA HUAPI","provincia":{"id":"62","nombre":"R\u00edo Negro"}},{"categoria":"Localidad simple","centroide":{"lat":-41.980485965733,"lon":-71.533617213665},"departamento":{"id":"62021","nombre":"Bariloche"},"id":"62021030000","localidad_censal":{"id":"62021030","nombre":"El Bols\u00f3n"},"municipio":{"id":"620070","nombre":"El Bolson"},"nombre":"EL BOLSON","provincia":{"id":"62","nombre":"R\u00edo Negro"}},{"categoria":"Localidad simple","centroide":{"lat":-41.818287425164,"lon":-68.077415237724},"departamento":{"id":"62091","nombre":"25 de Mayo"},"id":"62091040000","localidad_censal":{"id":"62091040","nombre":"El Ca\u00edn"},"municipio":{"id":"625224","nombre":"El Cain"},"nombre":"EL CAIN","provincia":{"id":"62","nombre":"R\u00edo Negro"}},{"categoria":"Localidad simple","centroide":{"lat":-41.043074401021,"lon":-62.821233973246},"departamento":{"id":"62007","nombre":"Adolfo Alsina"},"id":"62007020000","localidad_censal":{"id":"62007020","nombre":"El C\u00f3ndor"},"municipio":{"id":"620014","nombre":"Viedma"},"nombre":"EL CONDOR","provincia":{"id":"62","nombre":"R\u00edo Negro"}},{"categoria":"Localidad simple","centroide":{"lat":-39.923091218703,"lon":-68.336949842778},"departamento":{"id":"62035","nombre":"El Cuy"},"id":"62035030000","localidad_censal":{"id":"62035030","nombre":"El Cuy"},"municipio":{"id":"625056","nombre":"El Cuy"},"nombre":"EL CUY","provincia":{"id":"62","nombre":"R\u00edo Negro"}},{"categoria":"Localidad simple","centroide":{"lat":-41.657119922374,"lon":-71.45927762871},"departamento":{"id":"62021","nombre":"Bariloche"},"id":"62021040000","localidad_censal":{"id":"62021040","nombre":"El Foyel"},"municipio":{"id":"625028","nombre":"El Manso"},"nombre":"EL FOYEL","provincia":{"id":"62","nombre":"R\u00edo Negro"}},{"categoria":"Localidad simple","centroide":{"lat":-40.804046432413,"lon":-63.119258465235},"departamento":{"id":"62007","nombre":"Adolfo Alsina"},"id":"62007030000","localidad_censal":{"id":"62007030","nombre":"El Juncal"},"municipio":{"id":"620014","nombre":"Viedma"},"nombre":"EL JUNCAL","provincia":{"id":"62","nombre":"R\u00edo Negro"}},{"categoria":"Localidad simple","centroide":{"lat":-40.706602544179,"lon":-65.003074371564},"departamento":{"id":"62077","nombre":"San Antonio"},"id":"62077005000","localidad_censal":{"id":"62077005","nombre":"El Empalme"},"municipio":{"id":"620231","nombre":"San Antonio Oeste"},"nombre":"ESTACION EMPALME","provincia":{"id":"62","nombre":"R\u00edo Negro"}},{"categoria":"Localidad simple","centroide":{"lat":-38.887175464816,"lon":-68.006843398819},"departamento":{"id":"62042","nombre":"General Roca"},"id":"62042420000","localidad_censal":{"id":"62042420","nombre":"Ferri"},"municipio":{"id":"620133","nombre":"Cipolletti"},"nombre":"FERRI","provincia":{"id":"62","nombre":"R\u00edo Negro"}},{"categoria":"Localidad simple","centroide":{"lat":-40.104735425812,"lon":-64.452961945825},"departamento":{"id":"62028","nombre":"Conesa"},"id":"62028020000","localidad_censal":{"id":"62028020","nombre":"General Conesa"},"municipio":{"id":"620084","nombre":"Gral. Conesa"},"nombre":"GENERAL CONESA","provincia":{"id":"62","nombre":"R\u00edo Negro"}},{"categoria":"Localidad simple","centroide":{"lat":-39.079550122292,"lon":-67.157550825976},"departamento":{"id":"62042","nombre":"General Roca"},"id":"62042430000","localidad_censal":{"id":"62042430","nombre":"General Enrique Godoy"},"municipio":{"id":"620147","nombre":"Gral. Enrique Godoy"},"nombre":"GENERAL ENRIQUE GODOY","provincia":{"id":"62","nombre":"R\u00edo Negro"}},{"categoria":"Localidad simple","centroide":{"lat":-38.95436020459,"lon":-67.925108978499},"departamento":{"id":"62042","nombre":"General Roca"},"id":"62042440000","localidad_censal":{"id":"62042440","nombre":"General Fern\u00e1ndez Oro"},"municipio":{"id":"620154","nombre":"Gral. Fdez. Oro"},"nombre":"GENERAL FERNANDEZ ORO","provincia":{"id":"62","nombre":"R\u00edo Negro"}},{"categoria":"Localidad simple con entidad","centroide":{"lat":-39.026702518209,"lon":-67.574854096243},"departamento":{"id":"62042","nombre":"General Roca"},"id":"62042450000","localidad_censal":{"id":"62042450","nombre":"General Roca"},"municipio":{"id":"620161","nombre":"Gral. Roca"},"nombre":"GENERAL ROCA","provincia":{"id":"62","nombre":"R\u00edo Negro"}},{"categoria":"Localidad simple","centroide":{"lat":-40.430295188397,"lon":-63.671914010326},"departamento":{"id":"62007","nombre":"Adolfo Alsina"},"id":"62007040000","localidad_censal":{"id":"62007040","nombre":"Guardia Mitre"},"municipio":{"id":"620007","nombre":"Guardia Mitre"},"nombre":"GUARDIA MITRE","provincia":{"id":"62","nombre":"R\u00edo Negro"}},{"categoria":"Localidad simple","centroide":{"lat":-41.326813424033,"lon":-69.544126389031},"departamento":{"id":"62091","nombre":"25 de Mayo"},"id":"62091050000","localidad_censal":{"id":"62091050","nombre":"Ingeniero Jacobacci"},"municipio":{"id":"620252","nombre":"Ing. Jacobacci"},"nombre":"INGENIERO JACOBACCI","provincia":{"id":"62","nombre":"R\u00edo Negro"}},{"categoria":"Localidad simple","centroide":{"lat":-39.071175746808,"lon":-67.232887635035},"departamento":{"id":"62042","nombre":"General Roca"},"id":"62042460000","localidad_censal":{"id":"62042460","nombre":"Ingeniero Luis A. Huergo"},"municipio":{"id":"620168","nombre":"Ingeniero Huergo"},"nombre":"INGENIERO LUIS A. HUERGO","provincia":{"id":"62","nombre":"R\u00edo Negro"}},{"categoria":"Localidad simple","centroide":{"lat":-39.111428102399,"lon":-66.993909626205},"departamento":{"id":"62042","nombre":"General Roca"},"id":"62042470000","localidad_censal":{"id":"62042470","nombre":"Ingeniero Otto Krause"},"municipio":{"id":"620119","nombre":"Chichinales"},"nombre":"INGENIERO OTTO KRAUSE","provincia":{"id":"62","nombre":"R\u00edo Negro"}},{"categoria":"Localidad simple","centroide":{"lat":-39.012565217148,"lon":-64.065044726744},"departamento":{"id":"62063","nombre":"Pichi Mahuida"},"id":"62063013000","localidad_censal":{"id":"62063013","nombre":"Juventud Unida"},"municipio":{"id":"620210","nombre":"R\u00eco Colorado"},"nombre":"JUVENTUD UNIDA","provincia":{"id":"62","nombre":"R\u00edo Negro"}},{"categoria":"Localidad simple","centroide":{"lat":-41.154100888569,"lon":-63.123480036654},"departamento":{"id":"62007","nombre":"Adolfo Alsina"},"id":"62007050000","localidad_censal":{"id":"62007050","nombre":"La Lober\u00eda"},"municipio":{"id":null,"nombre":null},"nombre":"LA LOBERIA","provincia":{"id":"62","nombre":"R\u00edo Negro"}},{"categoria":"Localidad simple","centroide":{"lat":-40.792595484698,"lon":-69.881039958111},"departamento":{"id":"62070","nombre":"Pilcaniyeu"},"id":"62070030000","localidad_censal":{"id":"62070030","nombre":"Laguna Blanca"},"municipio":{"id":"625231","nombre":"Laguna Blanca"},"nombre":"LAGUNA BLANCA","provincia":{"id":"62","nombre":"R\u00edo Negro"}},{"categoria":"Localidad simple","centroide":{"lat":-39.423265292096,"lon":-65.701450497678},"departamento":{"id":"62014","nombre":"Avellaneda"},"id":"62014070000","localidad_censal":{"id":"62014070","nombre":"Lamarque"},"municipio":{"id":"620049","nombre":"Lamarque"},"nombre":"LAMARQUE","provincia":{"id":"62","nombre":"R\u00edo Negro"}},{"categoria":"Localidad simple","centroide":{"lat":-41.450405781287,"lon":-70.682789462677},"departamento":{"id":"62056","nombre":"\u00d1orquinco"},"id":"62056010000","localidad_censal":{"id":"62056010","nombre":"Las Bayas"},"municipio":{"id":"620224","nombre":"Pilcaniyeu"},"nombre":"LAS BAYAS","provincia":{"id":"62","nombre":"R\u00edo Negro"}},{"categoria":"Localidad simple","centroide":{"lat":-40.806093320236,"lon":-65.084701975749},"departamento":{"id":"62077","nombre":"San Antonio"},"id":"62077010000","localidad_censal":{"id":"62077010","nombre":"Las Grutas"},"municipio":{"id":null,"nombre":null},"nombre":"LAS GRUTAS","provincia":{"id":"62","nombre":"R\u00edo Negro"}},{"categoria":"Localidad simple","centroide":{"lat":-38.984069069068,"lon":-68.140350182262},"departamento":{"id":"62035","nombre":"El Cuy"},"id":"62035040000","localidad_censal":{"id":"62035040","nombre":"Las Perlas"},"municipio":{"id":"620133","nombre":"Cipolletti"},"nombre":"LAS PERLAS","provincia":{"id":"62","nombre":"R\u00edo Negro"}},{"categoria":"Localidad simple","centroide":{"lat":-40.845191142627,"lon":-68.083202506128},"departamento":{"id":"62091","nombre":"25 de Mayo"},"id":"62091060000","localidad_censal":{"id":"62091060","nombre":"Los Menucos"},"municipio":{"id":"620259","nombre":"Los Menucos"},"nombre":"LOS MENUCOS","provincia":{"id":"62","nombre":"R\u00edo Negro"}},{"categoria":"Localidad simple","centroide":{"lat":-40.872297722752,"lon":-62.914663582637},"departamento":{"id":"62007","nombre":"Adolfo Alsina"},"id":"62007060000","localidad_censal":{"id":"62007060","nombre":"Loteo Costa de R\u00edo"},"municipio":{"id":null,"nombre":null},"nombre":"LOTEO COSTA DE RIO","provincia":{"id":"62","nombre":"R\u00edo Negro"}},{"categoria":"Localidad simple","centroide":{"lat":-39.308880098447,"lon":-65.764871419388},"departamento":{"id":"62014","nombre":"Avellaneda"},"id":"62014080000","localidad_censal":{"id":"62014080","nombre":"Luis Beltr\u00e1n"},"municipio":{"id":"620056","nombre":"Luis Beltran"},"nombre":"LUIS BELTRAN","provincia":{"id":"62","nombre":"R\u00edo Negro"}},{"categoria":"Localidad simple","centroide":{"lat":-39.063756199938,"lon":-67.304281181357},"departamento":{"id":"62042","nombre":"General Roca"},"id":"62042480000","localidad_censal":{"id":"62042480","nombre":"Mainqu\u00e9"},"municipio":{"id":"620175","nombre":"Mainque"},"nombre":"MAINQUE","provincia":{"id":"62","nombre":"R\u00edo Negro"}},{"categoria":"Localidad simple","centroide":{"lat":-41.841273673411,"lon":-71.509129298644},"departamento":{"id":"62021","nombre":"Bariloche"},"id":"62021047000","localidad_censal":{"id":"62021047","nombre":"Mall\u00edn Ahogado"},"municipio":{"id":"620070","nombre":"El Bolson"},"nombre":"MALLIN AHOGADO","provincia":{"id":"62","nombre":"R\u00edo Negro"}},{"categoria":"Localidad simple","centroide":{"lat":-41.769841642775,"lon":-70.170863221644},"departamento":{"id":"62056","nombre":"\u00d1orquinco"},"id":"62056020000","localidad_censal":{"id":"62056020","nombre":"Mamuel Choique"},"municipio":{"id":"625238","nombre":"Mamuel Choique"},"nombre":"MAMUEL CHOIQUE","provincia":{"id":"62","nombre":"R\u00edo Negro"}},{"categoria":"Localidad simple","centroide":{"lat":-41.247516563861,"lon":-68.700341068745},"departamento":{"id":"62091","nombre":"25 de Mayo"},"id":"62091070000","localidad_censal":{"id":"62091070","nombre":"Maquinchao"},"municipio":{"id":"620266","nombre":"Maquinchao"},"nombre":"MAQUINCHAO","provincia":{"id":"62","nombre":"R\u00edo Negro"}},{"categoria":"Localidad simple","centroide":{"lat":-40.422902971051,"lon":-69.614387710825},"departamento":{"id":"62035","nombre":"El Cuy"},"id":"62035050000","localidad_censal":{"id":"62035050","nombre":"Mencu\u00e9"},"municipio":{"id":"625070","nombre":"Mencuen"},"nombre":"MENCUE","provincia":{"id":"62","nombre":"R\u00edo Negro"}},{"categoria":"Localidad simple","centroide":{"lat":-40.934343558263,"lon":-69.411658784618},"departamento":{"id":"62091","nombre":"25 de Mayo"},"id":"62091080000","localidad_censal":{"id":"62091080","nombre":"Mina Santa Teresita"},"municipio":{"id":null,"nombre":null},"nombre":"MINA SANTA TERESITA","provincia":{"id":"62","nombre":"R\u00edo Negro"}},{"categoria":"Localidad simple","centroide":{"lat":-40.508540013383,"lon":-67.261920714884},"departamento":{"id":"62049","nombre":"9 de julio"},"id":"62049030000","localidad_censal":{"id":"62049030","nombre":"Ministro Ramos Mex\u00eda"},"municipio":{"id":"620189","nombre":"Ministro Ramos Mexia"},"nombre":"MINISTRO RAMOS MEXIA","provincia":{"id":"62","nombre":"R\u00edo Negro"}},{"categoria":"Localidad simple","centroide":{"lat":-40.504198321368,"lon":-66.565752996821},"departamento":{"id":"62084","nombre":"Valcheta"},"id":"62084040000","localidad_censal":{"id":"62084040","nombre":"Nahuel Niyeu"},"municipio":{"id":"625182","nombre":"Nahuel Niyeu"},"nombre":"NAHUEL NIYEU","provincia":{"id":"62","nombre":"R\u00edo Negro"}},{"categoria":"Localidad simple","centroide":{"lat":-39.828284592654,"lon":-69.50897268748},"departamento":{"id":"62035","nombre":"El Cuy"},"id":"62035060000","localidad_censal":{"id":"62035060","nombre":"Naupa Huen"},"municipio":{"id":"625098","nombre":"Naupa Huen"},"nombre":"NAUPA HUEN","provincia":{"id":"62","nombre":"R\u00edo Negro"}},{"categoria":"Localidad simple","centroide":{"lat":-41.088559283484,"lon":-71.136913375158},"departamento":{"id":"62070","nombre":"Pilcaniyeu"},"id":"62070040000","localidad_censal":{"id":"62070040","nombre":"\u00d1irihuau"},"municipio":{"id":"620273","nombre":"Dina Huapi"},"nombre":"\u00d1IRIHUAU","provincia":{"id":"62","nombre":"R\u00edo Negro"}},{"categoria":"Localidad simple","centroide":{"lat":-41.843448611748,"lon":-70.894393214994},"departamento":{"id":"62056","nombre":"\u00d1orquinco"},"id":"62056030000","localidad_censal":{"id":"62056030","nombre":"\u00d1orquinc\u00f3"},"municipio":{"id":"620203","nombre":"\u00d1orquinco"},"nombre":"\u00d1ORQUINCO","provincia":{"id":"62","nombre":"R\u00edo Negro"}},{"categoria":"Localidad simple","centroide":{"lat":-41.534892227381,"lon":-69.854645970072},"departamento":{"id":"62056","nombre":"\u00d1orquinco"},"id":"62056040000","localidad_censal":{"id":"62056040","nombre":"Ojos de Agua"},"municipio":{"id":"625245","nombre":"Ojos de Agua"},"nombre":"OJOS DE AGUA","provincia":{"id":"62","nombre":"R\u00edo Negro"}},{"categoria":"Componente de localidad compuesta","centroide":{"lat":-39.115333039661,"lon":-67.626497474439},"departamento":{"id":"62035","nombre":"El Cuy"},"id":"62035070000","localidad_censal":{"id":"62035070","nombre":"Paso C\u00f3rdova"},"municipio":{"id":"620161","nombre":"Gral. Roca"},"nombre":"PASO CORDOVA","provincia":{"id":"62","nombre":"R\u00edo Negro"}},{"categoria":"Componente de localidad compuesta","centroide":{"lat":-39.107750409664,"lon":-67.627707499883},"departamento":{"id":"62042","nombre":"General Roca"},"id":"62042490000","localidad_censal":{"id":"62042490","nombre":"Paso C\u00f3rdova"},"municipio":{"id":"620161","nombre":"Gral. Roca"},"nombre":"PASO CORDOVA","provincia":{"id":"62","nombre":"R\u00edo Negro"}},{"categoria":"Localidad simple","centroide":{"lat":-38.701066510045,"lon":-68.027717969879},"departamento":{"id":"62042","nombre":"General Roca"},"id":"62042500000","localidad_censal":{"id":"62042500","nombre":"Pen\u00ednsula Ruca Co"},"municipio":{"id":null,"nombre":null},"nombre":"PENINSULA RUCA CO","provincia":{"id":"62","nombre":"R\u00edo Negro"}},{"categoria":"Localidad simple","centroide":{"lat":-38.829613617749,"lon":-64.937419806283},"departamento":{"id":"62063","nombre":"Pichi Mahuida"},"id":"62063017000","localidad_censal":{"id":"62063017","nombre":"Pichi Mahuida"},"municipio":{"id":"420189","nombre":"La Adela"},"nombre":"PICHI MAHUIDA","provincia":{"id":"62","nombre":"R\u00edo Negro"}},{"categoria":"Localidad simple","centroide":{"lat":-41.125290183375,"lon":-70.721694390691},"departamento":{"id":"62070","nombre":"Pilcaniyeu"},"id":"62070060000","localidad_censal":{"id":"62070060","nombre":"Pilcaniyeu"},"municipio":{"id":"620224","nombre":"Pilcaniyeu"},"nombre":"PILCANIYEU","provincia":{"id":"62","nombre":"R\u00edo Negro"}},{"categoria":"Localidad simple","centroide":{"lat":-41.908386540574,"lon":-68.342473245018},"departamento":{"id":"62091","nombre":"25 de Mayo"},"id":"62091090000","localidad_censal":{"id":"62091090","nombre":"Pilquiniyeu"},"municipio":{"id":"625252","nombre":"Pilquiniyeu"},"nombre":"PILQUINIYEU","provincia":{"id":"62","nombre":"R\u00edo Negro"}},{"categoria":"Localidad simple","centroide":{"lat":-40.544852483623,"lon":-70.053231466152},"departamento":{"id":"62070","nombre":"Pilcaniyeu"},"id":"62070070000","localidad_censal":{"id":"62070070","nombre":"Pilquiniyeu del Limay"},"municipio":{"id":"625140","nombre":"Pilquiniyeu del Limay"},"nombre":"PILQUINIYEU DEL LIMAY","provincia":{"id":"62","nombre":"R\u00edo Negro"}},{"categoria":"Localidad simple","centroide":{"lat":-41.627678788831,"lon":-65.023674601763},"departamento":{"id":"62077","nombre":"San Antonio"},"id":"62077020000","localidad_censal":{"id":"62077020","nombre":"Playas Doradas"},"municipio":{"id":"620238","nombre":"Sierra Grande"},"nombre":"PLAYAS DORADAS","provincia":{"id":"62","nombre":"R\u00edo Negro"}},{"categoria":"Localidad simple","centroide":{"lat":-39.484160457341,"lon":-65.612460051395},"departamento":{"id":"62014","nombre":"Avellaneda"},"id":"62014090000","localidad_censal":{"id":"62014090","nombre":"Pomona"},"municipio":{"id":"620063","nombre":"Pomona"},"nombre":"POMONA","provincia":{"id":"62","nombre":"R\u00edo Negro"}},{"categoria":"Localidad simple","centroide":{"lat":-41.017848812051,"lon":-64.140393305313},"departamento":{"id":"62007","nombre":"Adolfo Alsina"},"id":"62007070000","localidad_censal":{"id":"62007070","nombre":"Pozo Salado"},"municipio":{"id":null,"nombre":null},"nombre":"POZO SALADO","provincia":{"id":"62","nombre":"R\u00edo Negro"}},{"categoria":"Localidad simple","centroide":{"lat":-41.359151924709,"lon":-67.931476342267},"departamento":{"id":"62049","nombre":"9 de julio"},"id":"62049040000","localidad_censal":{"id":"62049040","nombre":"Prahuaniyeu"},"municipio":{"id":"625259","nombre":"Prahuaniyeu"},"nombre":"PRAHUANIYEU","provincia":{"id":"62","nombre":"R\u00edo Negro"}},{"categoria":"Localidad simple","centroide":{"lat":-40.800881553257,"lon":-64.877897416185},"departamento":{"id":"62077","nombre":"San Antonio"},"id":"62077030000","localidad_censal":{"id":"62077030","nombre":"Puerto San Antonio Este"},"municipio":{"id":"620231","nombre":"San Antonio Oeste"},"nombre":"PUERTO SAN ANTONIO ESTE","provincia":{"id":"62","nombre":"R\u00edo Negro"}},{"categoria":"Localidad simple","centroide":{"lat":-41.694122197902,"lon":-65.02455734113},"departamento":{"id":"62077","nombre":"San Antonio"},"id":"62077040000","localidad_censal":{"id":"62077040","nombre":"Punta Colorada"},"municipio":{"id":"620238","nombre":"Sierra Grande"},"nombre":"PUNTA COLORADA","provincia":{"id":"62","nombre":"R\u00edo Negro"}},{"categoria":"Localidad simple","centroide":{"lat":-41.716722783539,"lon":-70.471083901464},"departamento":{"id":"62056","nombre":"\u00d1orquinco"},"id":"62056050000","localidad_censal":{"id":"62056050","nombre":"R\u00edo Chico"},"municipio":{"id":"625266","nombre":"Rio Chico"},"nombre":"RIO CHICO","provincia":{"id":"62","nombre":"R\u00edo Negro"}},{"categoria":"Componente de localidad compuesta","centroide":{"lat":-38.991413607874,"lon":-64.087468229552},"departamento":{"id":"62063","nombre":"Pichi Mahuida"},"id":"62063020000","localidad_censal":{"id":"62063020","nombre":"R\u00edo Colorado"},"municipio":{"id":"620210","nombre":"R\u00eco Colorado"},"nombre":"RIO COLORADO","provincia":{"id":"62","nombre":"R\u00edo Negro"}},{"categoria":"Localidad simple","centroide":{"lat":-41.582215915576,"lon":-71.501293400279},"departamento":{"id":"62021","nombre":"Bariloche"},"id":"62021050000","localidad_censal":{"id":"62021050","nombre":"R\u00edo Villegas"},"municipio":{"id":"625028","nombre":"El Manso"},"nombre":"RIO VILLEGAS","provincia":{"id":"62","nombre":"R\u00edo Negro"}},{"categoria":"Localidad simple","centroide":{"lat":-40.811004684265,"lon":-64.758112938278},"departamento":{"id":"62077","nombre":"San Antonio"},"id":"62077045000","localidad_censal":{"id":"62077045","nombre":"Saco Viejo"},"municipio":{"id":"620231","nombre":"San Antonio Oeste"},"nombre":"SACO VIEJO","provincia":{"id":"62","nombre":"R\u00edo Negro"}},{"categoria":"Localidad simple","centroide":{"lat":-38.822978923281,"lon":-64.818277870807},"departamento":{"id":"62063","nombre":"Pichi Mahuida"},"id":"62063060000","localidad_censal":{"id":"62063060","nombre":"Salto Andersen"},"municipio":{"id":null,"nombre":null},"nombre":"SALTO ANDERSEN","provincia":{"id":"62","nombre":"R\u00edo Negro"}},{"categoria":"Localidad simple","centroide":{"lat":-40.731294527501,"lon":-64.955294130717},"departamento":{"id":"62077","nombre":"San Antonio"},"id":"62077050000","localidad_censal":{"id":"62077050","nombre":"San Antonio Oeste"},"municipio":{"id":"620231","nombre":"San Antonio Oeste"},"nombre":"SAN ANTONIO OESTE","provincia":{"id":"62","nombre":"R\u00edo Negro"}},{"categoria":"Localidad simple con entidad","centroide":{"lat":-41.136928285092,"lon":-71.299064540311},"departamento":{"id":"62021","nombre":"Bariloche"},"id":"62021060000","localidad_censal":{"id":"62021060","nombre":"San Carlos de Bariloche"},"municipio":{"id":"620077","nombre":"San Carlos de Bariloche"},"nombre":"SAN CARLOS DE BARILOCHE","provincia":{"id":"62","nombre":"R\u00edo Negro"}},{"categoria":"Entidad","centroide":{"lat":-41.119262566872,"lon":-71.351142488652},"departamento":{"id":"62021","nombre":"Bariloche"},"id":"62021060001","localidad_censal":{"id":"62021060","nombre":"San Carlos de Bariloche"},"municipio":{"id":null,"nombre":null},"nombre":"SAN CARLOS DE BARILOCHE","provincia":{"id":"62","nombre":"R\u00edo Negro"}},{"categoria":"Localidad simple","centroide":{"lat":-40.747250949607,"lon":-63.264652496715},"departamento":{"id":"62007","nombre":"Adolfo Alsina"},"id":"62007080000","localidad_censal":{"id":"62007080","nombre":"San Javier"},"municipio":{"id":"625014","nombre":"San Javier"},"nombre":"SAN JAVIER","provincia":{"id":"62","nombre":"R\u00edo Negro"}},{"categoria":"Localidad simple","centroide":{"lat":-39.028251797593,"lon":-67.298454912371},"departamento":{"id":"62042","nombre":"General Roca"},"id":"62042335000","localidad_censal":{"id":"62042335","nombre":"Barrio Santa Lucia"},"municipio":{"id":"620175","nombre":"Mainque"},"nombre":"SANTA LUCIA","provincia":{"id":"62","nombre":"R\u00edo Negro"}},{"categoria":"Localidad simple","centroide":{"lat":-38.68564096149,"lon":-68.158078028218},"departamento":{"id":"62042","nombre":"General Roca"},"id":"62042520000","localidad_censal":{"id":"62042520","nombre":"Sargento Vidal"},"municipio":{"id":"620098","nombre":"Campo Grande"},"nombre":"SARGENTO VIDAL","provincia":{"id":"62","nombre":"R\u00edo Negro"}},{"categoria":"Localidad simple","centroide":{"lat":-40.585099352762,"lon":-67.755544586445},"departamento":{"id":"62049","nombre":"9 de julio"},"id":"62049050000","localidad_censal":{"id":"62049050","nombre":"Sierra Colorada"},"municipio":{"id":"620196","nombre":"Sierra Colorada"},"nombre":"SIERRA COLORADA","provincia":{"id":"62","nombre":"R\u00edo Negro"}},{"categoria":"Localidad simple","centroide":{"lat":-41.607186331551,"lon":-65.353401740609},"departamento":{"id":"62077","nombre":"San Antonio"},"id":"62077060000","localidad_censal":{"id":"62077060","nombre":"Sierra Grande"},"municipio":{"id":"620238","nombre":"Sierra Grande"},"nombre":"SIERRA GRANDE","provincia":{"id":"62","nombre":"R\u00edo Negro"}},{"categoria":"Localidad simple","centroide":{"lat":-41.181271452325,"lon":-65.96142925123},"departamento":{"id":"62084","nombre":"Valcheta"},"id":"62084050000","localidad_censal":{"id":"62084050","nombre":"Sierra Pailem\u00e1n"},"municipio":{"id":"625189","nombre":"Sierra Paileman"},"nombre":"SIERRA PAILEMAN","provincia":{"id":"62","nombre":"R\u00edo Negro"}},{"categoria":"Localidad simple","centroide":{"lat":-40.850827743245,"lon":-66.981684692704},"departamento":{"id":"62049","nombre":"9 de julio"},"id":"62049060000","localidad_censal":{"id":"62049060","nombre":"Treneta"},"municipio":{"id":"625119","nombre":"Rincon de Treneta"},"nombre":"TRENETA","provincia":{"id":"62","nombre":"R\u00edo Negro"}},{"categoria":"Entidad","centroide":{"lat":-38.965598021074,"lon":-67.950955022041},"departamento":{"id":"62042","nombre":"General Roca"},"id":"62042330006","localidad_censal":{"id":"62042330","nombre":"Barrio Puente 83"},"municipio":{"id":"620133","nombre":"Cipolletti"},"nombre":"TRES LUCES","provincia":{"id":"62","nombre":"R\u00edo Negro"}},{"categoria":"Localidad simple","centroide":{"lat":-40.677861778851,"lon":-66.165326135689},"departamento":{"id":"62084","nombre":"Valcheta"},"id":"62084060000","localidad_censal":{"id":"62084060","nombre":"Valcheta"},"municipio":{"id":"620245","nombre":"Valcheta"},"nombre":"VALCHETA","provincia":{"id":"62","nombre":"R\u00edo Negro"}},{"categoria":"Localidad simple","centroide":{"lat":-39.140482745395,"lon":-66.728564169352},"departamento":{"id":"62035","nombre":"El Cuy"},"id":"62035080000","localidad_censal":{"id":"62035080","nombre":"Valle Azul"},"municipio":{"id":"625112","nombre":"Valle Azul"},"nombre":"VALLE AZUL","provincia":{"id":"62","nombre":"R\u00edo Negro"}},{"categoria":"Componente de localidad compuesta","centroide":{"lat":-40.809323271239,"lon":-62.985320368271},"departamento":{"id":"62007","nombre":"Adolfo Alsina"},"id":"62007090000","localidad_censal":{"id":"62007090","nombre":"Viedma"},"municipio":{"id":"620014","nombre":"Viedma"},"nombre":"VIEDMA","provincia":{"id":"62","nombre":"R\u00edo Negro"}},{"categoria":"Localidad simple","centroide":{"lat":-39.128346365466,"lon":-67.0481125142},"departamento":{"id":"62042","nombre":"General Roca"},"id":"62042530000","localidad_censal":{"id":"62042530","nombre":"Villa Alberdi"},"municipio":{"id":"620182","nombre":"Villa Regina"},"nombre":"VILLA ALBERDI","provincia":{"id":"62","nombre":"R\u00edo Negro"}},{"categoria":"Localidad simple","centroide":{"lat":-41.170088108044,"lon":-71.385111926224},"departamento":{"id":"62021","nombre":"Bariloche"},"id":"62021005000","localidad_censal":{"id":"62021005","nombre":"Arelauquen"},"municipio":{"id":"620077","nombre":"San Carlos de Bariloche"},"nombre":"VILLA ARELAUQUEN","provincia":{"id":"62","nombre":"R\u00edo Negro"}},{"categoria":"Entidad","centroide":{"lat":-41.064970271409,"lon":-71.472673679537},"departamento":{"id":"62021","nombre":"Bariloche"},"id":"62021060002","localidad_censal":{"id":"62021060","nombre":"San Carlos de Bariloche"},"municipio":{"id":null,"nombre":null},"nombre":"VILLA CAMPANARIO","provincia":{"id":"62","nombre":"R\u00edo Negro"}},{"categoria":"Localidad simple","centroide":{"lat":-41.166635126431,"lon":-71.437574540497},"departamento":{"id":"62021","nombre":"Bariloche"},"id":"62021080000","localidad_censal":{"id":"62021080","nombre":"Villa Catedral"},"municipio":{"id":"620077","nombre":"San Carlos de Bariloche"},"nombre":"VILLA CATEDRAL","provincia":{"id":"62","nombre":"R\u00edo Negro"}},{"categoria":"Localidad simple","centroide":{"lat":-39.125807981754,"lon":-66.997630041237},"departamento":{"id":"62042","nombre":"General Roca"},"id":"62042540000","localidad_censal":{"id":"62042540","nombre":"Villa del Parque"},"municipio":{"id":"620119","nombre":"Chichinales"},"nombre":"VILLA DEL PARQUE","provincia":{"id":"62","nombre":"R\u00edo Negro"}},{"categoria":"Localidad simple","centroide":{"lat":-40.923910204709,"lon":-71.033857977076},"departamento":{"id":"62070","nombre":"Pilcaniyeu"},"id":"62070080000","localidad_censal":{"id":"62070080","nombre":"Villa Llanqu\u00edn"},"municipio":{"id":"625042","nombre":"Villa Llanquin"},"nombre":"VILLA LLANQUIN","provincia":{"id":"62","nombre":"R\u00edo Negro"}},{"categoria":"Entidad","centroide":{"lat":-41.069760438726,"lon":-71.539651353456},"departamento":{"id":"62021","nombre":"Bariloche"},"id":"62021060003","localidad_censal":{"id":"62021060","nombre":"San Carlos de Bariloche"},"municipio":{"id":"620077","nombre":"San Carlos de Bariloche"},"nombre":"VILLA LLAO LLAO","provincia":{"id":"62","nombre":"R\u00edo Negro"}},{"categoria":"Localidad simple","centroide":{"lat":-41.157579374679,"lon":-71.413155861097},"departamento":{"id":"62021","nombre":"Bariloche"},"id":"62021100000","localidad_censal":{"id":"62021100","nombre":"Villa Los Coihues"},"municipio":{"id":"620077","nombre":"San Carlos de Bariloche"},"nombre":"VILLA LOS COIHUES","provincia":{"id":"62","nombre":"R\u00edo Negro"}},{"categoria":"Localidad simple","centroide":{"lat":-38.680604154368,"lon":-68.215718085127},"departamento":{"id":"62042","nombre":"General Roca"},"id":"62042550000","localidad_censal":{"id":"62042550","nombre":"Villa Manzano"},"municipio":{"id":"620098","nombre":"Campo Grande"},"nombre":"VILLA MANZANO","provincia":{"id":"62","nombre":"R\u00edo Negro"}},{"categoria":"Localidad simple","centroide":{"lat":-41.349553644143,"lon":-71.509041629413},"departamento":{"id":"62021","nombre":"Bariloche"},"id":"62021110000","localidad_censal":{"id":"62021110","nombre":"Villa Mascardi"},"municipio":{"id":null,"nombre":null},"nombre":"VILLA MASCARDI","provincia":{"id":"62","nombre":"R\u00edo Negro"}},{"categoria":"Localidad simple","centroide":{"lat":-39.0962966627,"lon":-67.082809263094},"departamento":{"id":"62042","nombre":"General Roca"},"id":"62042560000","localidad_censal":{"id":"62042560","nombre":"Villa Regina"},"municipio":{"id":"620182","nombre":"Villa Regina"},"nombre":"VILLA REGINA","provincia":{"id":"62","nombre":"R\u00edo Negro"}},{"categoria":"Localidad simple","centroide":{"lat":-38.706485107819,"lon":-68.1737455218},"departamento":{"id":"62042","nombre":"General Roca"},"id":"62042570000","localidad_censal":{"id":"62042570","nombre":"Villa San Isidro"},"municipio":{"id":"620098","nombre":"Campo Grande"},"nombre":"VILLA SAN ISIDRO","provincia":{"id":"62","nombre":"R\u00edo Negro"}},{"categoria":"Localidad simple","centroide":{"lat":-40.842927450799,"lon":-67.192250065691},"departamento":{"id":"62049","nombre":"9 de julio"},"id":"62049070000","localidad_censal":{"id":"62049070","nombre":"Yaminu\u00e9"},"municipio":{"id":null,"nombre":null},"nombre":"YAMINUE","provincia":{"id":"62","nombre":"R\u00edo Negro"}}]}