{
    "metadata": {
        "resultset": {
            "count": 4142,
            "offset": 0,
            "limit": 5000
        }
    },
"results":[{"categoria":"Localidad simple","centroide":{"lat":-22.262570805767,"lon":-64.999342591529},"departamento":{"id":"66161","nombre":"Santa Victoria"},"id":"66161010000","localidad_censal":{"id":"66161010","nombre":"Acoyte"},"municipio":{"id":"660413","nombre":"Santa Victoria Oeste"},"nombre":"ACOYTE","provincia":{"id":"66","nombre":"Salta"}},{"categoria":"Localidad simple","centroide":{"lat":-22.238814309346,"lon":-63.728388921081},"departamento":{"id":"66056","nombre":"General Jos\u00e9 de San Mart\u00edn"},"id":"66056010000","localidad_censal":{"id":"66056010","nombre":"Aguaray"},"municipio":{"id":"660126","nombre":"Aguaray"},"nombre":"AGUARAY","provincia":{"id":"66","nombre":"Salta"}},{"categoria":"Localidad simple","centroide":{"lat":-22.724561190224,"lon":-64.346319220401},"departamento":{"id":"66126","nombre":"Or\u00e1n"},"id":"66126010000","localidad_censal":{"id":"66126010","nombre":"Aguas Blancas"},"municipio":{"id":null,"nombre":null},"nombre":"AGUAS BLANCAS","provincia":{"id":"66","nombre":"Salta"}},{"categoria":"Localidad simple","centroide":{"lat":-22.689377292413,"lon":-62.452775643758},"departamento":{"id":"66133","nombre":"Rivadavia"},"id":"66133010000","localidad_censal":{"id":"66133010","nombre":"Alto de la Sierra"},"municipio":{"id":"660343","nombre":"Santa Victoria Este"},"nombre":"ALTO DE LA SIERRA","provincia":{"id":"66","nombre":"Salta"}},{"categoria":"Localidad simple","centroide":{"lat":-25.355455514438,"lon":-65.532304466833},"departamento":{"id":"66098","nombre":"La Vi\u00f1a"},"id":"66098010000","localidad_censal":{"id":"66098010","nombre":"Ampascachi"},"municipio":{"id":"660238","nombre":"La Vi\u00f1a"},"nombre":"AMPASCACHI","provincia":{"id":"66","nombre":"Salta"}},{"categoria":"Localidad simple","centroide":{"lat":-25.683732009586,"lon":-66.163008464827},"departamento":{"id":"66154","nombre":"San Carlos"},"id":"66154010000","localidad_censal":{"id":"66154010","nombre":"Angastaco"},"municipio":{"id":"660378","nombre":"Angastaco"},"nombre":"ANGASTACO","provincia":{"id":"66","nombre":"Salta"}},{"categoria":"Localidad simple","centroide":{"lat":-25.925069535042,"lon":-65.963488639443},"departamento":{"id":"66154","nombre":"San Carlos"},"id":"66154020000","localidad_censal":{"id":"66154020","nombre":"Animan\u00e1"},"municipio":{"id":"660385","nombre":"Animan\u00e1"},"nombre":"ANIMANA","provincia":{"id":"66","nombre":"Salta"}},{"categoria":"Localidad simple","centroide":{"lat":-26.136747443166,"lon":-64.60799551594},"departamento":{"id":"66140","nombre":"Rosario de la Frontera"},"id":"66140010000","localidad_censal":{"id":"66140010","nombre":"Antill\u00e1"},"municipio":{"id":"660350","nombre":"El Potrero"},"nombre":"ANTILLA","provincia":{"id":"66","nombre":"Salta"}},{"categoria":"Localidad simple","centroide":{"lat":-24.440211756586,"lon":-64.000336137035},"departamento":{"id":"66007","nombre":"Anta"},"id":"66007010000","localidad_censal":{"id":"66007010","nombre":"Apolinario Saravia"},"municipio":{"id":"660007","nombre":"Apolinario Saravia"},"nombre":"APOLINARIO SARAVIA","provincia":{"id":"66","nombre":"Salta"}},{"categoria":"Localidad simple","centroide":{"lat":-24.816671606216,"lon":-65.478718040728},"departamento":{"id":"66028","nombre":"Capital"},"id":"66028010000","localidad_censal":{"id":"66028010","nombre":"Atocha"},"municipio":{"id":"660070","nombre":"San Lorenzo"},"nombre":"ATOCHA","provincia":{"id":"66","nombre":"Salta"}},{"categoria":"Entidad","centroide":{"lat":-24.877431440879,"lon":-65.478464215737},"departamento":{"id":"66035","nombre":"Cerrillos"},"id":"66035040001","localidad_censal":{"id":"66035040","nombre":"Villa Los \u00c1lamos - El Congreso - Las Tunas - Los Pinares - Los Olmos"},"municipio":{"id":"660077","nombre":"Cerrillos"},"nombre":"BARRIO EL CONGRESO","provincia":{"id":"66","nombre":"Salta"}},{"categoria":"Entidad","centroide":{"lat":-22.449765209117,"lon":-63.885619215536},"departamento":{"id":"66056","nombre":"General Jos\u00e9 de San Mart\u00edn"},"id":"66056140002","localidad_censal":{"id":"66056140","nombre":"Misi\u00f3n El Cruce - El Milagro - El Jard\u00edn de San Mart\u00edn"},"municipio":{"id":"660147","nombre":"General Mosconi"},"nombre":"BARRIO EL JARDIN DE SAN MARTIN","provincia":{"id":"66","nombre":"Salta"}},{"categoria":"Entidad","centroide":{"lat":-22.541324909733,"lon":-63.792788875937},"departamento":{"id":"66056","nombre":"General Jos\u00e9 de San Mart\u00edn"},"id":"66056140001","localidad_censal":{"id":"66056140","nombre":"Misi\u00f3n El Cruce - El Milagro - El Jard\u00edn de San Mart\u00edn"},"municipio":{"id":"660161","nombre":"Tartagal"},"nombre":"BARRIO EL MILAGRO","provincia":{"id":"66","nombre":"Salta"}},{"categoria":"Localidad simple","centroide":{"lat":-25.082565344059,"lon":-65.536994415208},"departamento":{"id":"66042","nombre":"Chicoana"},"id":"66042005000","localidad_censal":{"id":"66042005","nombre":"Barrio La Rotonda"},"municipio":{"id":"660091","nombre":"Chicoana"},"nombre":"BARRIO LA ROTONDA","provincia":{"id":"66","nombre":"Salta"}},{"categoria":"Entidad","centroide":{"lat":-24.858168610538,"lon":-65.399134139593},"departamento":{"id":"66035","nombre":"Cerrillos"},"id":"66035040002","localidad_censal":{"id":"66035040","nombre":"Villa Los \u00c1lamos - El Congreso - Las Tunas - Los Pinares - Los Olmos"},"municipio":{"id":"660077","nombre":"Cerrillos"},"nombre":"BARRIO LAS TUNAS","provincia":{"id":"66","nombre":"Salta"}},{"categoria":"Entidad","centroide":{"lat":-24.878430664505,"lon":-65.466289926351},"departamento":{"id":"66035","nombre":"Cerrillos"},"id":"66035040003","localidad_censal":{"id":"66035040","nombre":"Villa Los \u00c1lamos - El Congreso - Las Tunas - Los Pinares - Los Olmos"},"municipio":{"id":"660077","nombre":"Cerrillos"},"nombre":"BARRIO LOS OLMOS","provincia":{"id":"66","nombre":"Salta"}},{"categoria":"Entidad","centroide":{"lat":-24.858168610538,"lon":-65.399134139593},"departamento":{"id":"66035","nombre":"Cerrillos"},"id":"66035040004","localidad_censal":{"id":"66035040","nombre":"Villa Los \u00c1lamos - El Congreso - Las Tunas - Los Pinares - Los Olmos"},"municipio":{"id":"660077","nombre":"Cerrillos"},"nombre":"BARRIO LOS PINARES","provincia":{"id":"66","nombre":"Salta"}},{"categoria":"Entidad","centroide":{"lat":-24.814196563025,"lon":-65.457972948222},"departamento":{"id":"66028","nombre":"Capital"},"id":"66028030001","localidad_censal":{"id":"66028030","nombre":"La Ci\u00e9naga y Barrio San Rafael"},"municipio":{"id":"660070","nombre":"San Lorenzo"},"nombre":"BARRIO SAN RAFAEL","provincia":{"id":"66","nombre":"Salta"}},{"categoria":"Localidad simple","centroide":{"lat":-25.037026025924,"lon":-65.572645957259},"departamento":{"id":"66042","nombre":"Chicoana"},"id":"66042007000","localidad_censal":{"id":"66042007","nombre":"Barrio Santa Teresita"},"municipio":{"id":"660091","nombre":"Chicoana"},"nombre":"BARRIO SANTA TERESITA","provincia":{"id":"66","nombre":"Salta"}},{"categoria":"Localidad simple","centroide":{"lat":-25.290036707535,"lon":-65.38778537012},"departamento":{"id":"66098","nombre":"La Vi\u00f1a"},"id":"66098020000","localidad_censal":{"id":"66098020","nombre":"Cabra Corral"},"municipio":{"id":"660168","nombre":"Guachipas"},"nombre":"CABRA CORRAL","provincia":{"id":"66","nombre":"Salta"}},{"categoria":"Localidad simple","centroide":{"lat":-25.12016400724,"lon":-66.167949441216},"departamento":{"id":"66014","nombre":"Cachi"},"id":"66014010000","localidad_censal":{"id":"66014010","nombre":"Cachi"},"municipio":{"id":"660042","nombre":"Cachi"},"nombre":"CACHI","provincia":{"id":"66","nombre":"Salta"}},{"categoria":"Localidad simple","centroide":{"lat":-26.076538435855,"lon":-65.986289732029},"departamento":{"id":"66021","nombre":"Cafayate"},"id":"66021010000","localidad_censal":{"id":"66021010","nombre":"Cafayate"},"municipio":{"id":"660056","nombre":"Cafayate"},"nombre":"CAFAYATE","provincia":{"id":"66","nombre":"Salta"}},{"categoria":"Localidad simple","centroide":{"lat":-22.580047166221,"lon":-63.852323184489},"departamento":{"id":"66056","nombre":"General Jos\u00e9 de San Mart\u00edn"},"id":"66056020000","localidad_censal":{"id":"66056020","nombre":"Campamento Vespucio"},"municipio":{"id":"660147","nombre":"General Mosconi"},"nombre":"CAMPAMENTO VESPUCIO","provincia":{"id":"66","nombre":"Salta"}},{"categoria":"Localidad simple","centroide":{"lat":-23.106241203446,"lon":-63.995313924643},"departamento":{"id":"66056","nombre":"General Jos\u00e9 de San Mart\u00edn"},"id":"66056030000","localidad_censal":{"id":"66056030","nombre":"Campichuelo"},"municipio":{"id":"660133","nombre":"Embarcaci\u00f3n"},"nombre":"CAMPICHUELO","provincia":{"id":"66","nombre":"Salta"}},{"categoria":"Localidad simple","centroide":{"lat":-22.192519118496,"lon":-63.655616649753},"departamento":{"id":"66056","nombre":"General Jos\u00e9 de San Mart\u00edn"},"id":"66056040000","localidad_censal":{"id":"66056040","nombre":"Campo Dur\u00e1n"},"municipio":{"id":"660154","nombre":"Profesor Salvador Mazza"},"nombre":"CAMPO DURAN","provincia":{"id":"66","nombre":"Salta"}},{"categoria":"Localidad simple","centroide":{"lat":-22.428226680307,"lon":-65.145404966452},"departamento":{"id":"66161","nombre":"Santa Victoria"},"id":"66161020000","localidad_censal":{"id":"66161020","nombre":"Campo La Cruz"},"municipio":{"id":"660406","nombre":"Nazareno"},"nombre":"CAMPO LA CRUZ","provincia":{"id":"66","nombre":"Salta"}},{"categoria":"Localidad simple","centroide":{"lat":-24.909560390262,"lon":-65.639505025843},"departamento":{"id":"66147","nombre":"Rosario de Lerma"},"id":"66147010000","localidad_censal":{"id":"66147010","nombre":"Campo Quijano"},"municipio":{"id":"660364","nombre":"Campo Quijano"},"nombre":"CAMPO QUIJANO","provincia":{"id":"66","nombre":"Salta"}},{"categoria":"Localidad simple","centroide":{"lat":-24.683992453323,"lon":-65.102855681603},"departamento":{"id":"66049","nombre":"General G\u00fcemes"},"id":"66049010000","localidad_censal":{"id":"66049010","nombre":"Campo Santo"},"municipio":{"id":"660105","nombre":"Campo Santo"},"nombre":"CAMPO SANTO","provincia":{"id":"66","nombre":"Salta"}},{"categoria":"Localidad simple","centroide":{"lat":-22.167338874752,"lon":-63.708620991897},"departamento":{"id":"66056","nombre":"General Jos\u00e9 de San Mart\u00edn"},"id":"66056050000","localidad_censal":{"id":"66056050","nombre":"Capiazuti"},"municipio":{"id":"660126","nombre":"Aguaray"},"nombre":"CAPIAZUTI","provincia":{"id":"66","nombre":"Salta"}},{"categoria":"Localidad simple","centroide":{"lat":-23.70848767111,"lon":-62.381794944512},"departamento":{"id":"66133","nombre":"Rivadavia"},"id":"66133020000","localidad_censal":{"id":"66133020","nombre":"Capit\u00e1n Juan Pag\u00e9"},"municipio":{"id":"660329","nombre":"Rivadavia Banda Norte"},"nombre":"CAPITAN JUAN PAGE","provincia":{"id":"66","nombre":"Salta"}},{"categoria":"Localidad simple","centroide":{"lat":-23.259501617997,"lon":-63.802668527531},"departamento":{"id":"66056","nombre":"General Jos\u00e9 de San Mart\u00edn"},"id":"66056060000","localidad_censal":{"id":"66056060","nombre":"Carboncito"},"municipio":{"id":"660133","nombre":"Embarcaci\u00f3n"},"nombre":"CARBONCITO","provincia":{"id":"66","nombre":"Salta"}},{"categoria":"Entidad","centroide":{"lat":-24.765688228764,"lon":-65.476299386365},"departamento":{"id":"66028","nombre":"Capital"},"id":"66028050001","localidad_censal":{"id":"66028050","nombre":"Salta"},"municipio":{"id":"660063","nombre":"Salta"},"nombre":"CC EL TIPAL","provincia":{"id":"66","nombre":"Salta"}},{"categoria":"Entidad","centroide":{"lat":-24.763544418349,"lon":-65.463976207042},"departamento":{"id":"66028","nombre":"Capital"},"id":"66028050002","localidad_censal":{"id":"66028050","nombre":"Salta"},"municipio":{"id":"660063","nombre":"Salta"},"nombre":"CC LA ALMUDENA","provincia":{"id":"66","nombre":"Salta"}},{"categoria":"Localidad simple","centroide":{"lat":-25.127860361575,"lon":-64.289673505941},"departamento":{"id":"66007","nombre":"Anta"},"id":"66007020000","localidad_censal":{"id":"66007020","nombre":"Ceibalito"},"municipio":{"id":"660028","nombre":"Joaqu\u00edn V. Gonz\u00e1lez"},"nombre":"CEIBALITO","provincia":{"id":"66","nombre":"Salta"}},{"categoria":"Localidad simple","centroide":{"lat":-24.977318967512,"lon":-63.869856439564},"departamento":{"id":"66007","nombre":"Anta"},"id":"66007030000","localidad_censal":{"id":"66007030","nombre":"Centro 25 de Junio"},"municipio":{"id":"660028","nombre":"Joaqu\u00edn V. Gonz\u00e1lez"},"nombre":"CENTRO 25 DE JUNIO","provincia":{"id":"66","nombre":"Salta"}},{"categoria":"Componente de localidad compuesta","centroide":{"lat":-24.899748268594,"lon":-65.488405841965},"departamento":{"id":"66035","nombre":"Cerrillos"},"id":"66035010000","localidad_censal":{"id":"66035010","nombre":"Cerrillos"},"municipio":{"id":"660077","nombre":"Cerrillos"},"nombre":"CERRILLOS","provincia":{"id":"66","nombre":"Salta"}},{"categoria":"Localidad simple","centroide":{"lat":-25.105602371012,"lon":-65.536890353596},"departamento":{"id":"66042","nombre":"Chicoana"},"id":"66042010000","localidad_censal":{"id":"66042010","nombre":"Chicoana"},"municipio":{"id":"660091","nombre":"Chicoana"},"nombre":"CHICOANA","provincia":{"id":"66","nombre":"Salta"}},{"categoria":"Localidad simple","centroide":{"lat":-24.741470907657,"lon":-65.083932465262},"departamento":{"id":"66049","nombre":"General G\u00fcemes"},"id":"66049020000","localidad_censal":{"id":"66049020","nombre":"Cobos"},"municipio":{"id":"660105","nombre":"Campo Santo"},"nombre":"COBOS","provincia":{"id":"66","nombre":"Salta"}},{"categoria":"Localidad simple","centroide":{"lat":-23.639199850084,"lon":-66.268403972957},"departamento":{"id":"66091","nombre":"La Poma"},"id":"66091010000","localidad_censal":{"id":"66091010","nombre":"Cobres"},"municipio":{"id":"660224","nombre":"La Poma"},"nombre":"COBRES","provincia":{"id":"66","nombre":"Salta"}},{"categoria":"Localidad simple con entidad","centroide":{"lat":-23.388595720318,"lon":-64.423433322949},"departamento":{"id":"66126","nombre":"Or\u00e1n"},"id":"66126020000","localidad_censal":{"id":"66126020","nombre":"Colonia Santa Rosa"},"municipio":{"id":"660294","nombre":"Colonia Santa Rosa"},"nombre":"COLONIA SANTA ROSA","provincia":{"id":"66","nombre":"Salta"}},{"categoria":"Entidad","centroide":{"lat":-23.366449209348,"lon":-64.352407179077},"departamento":{"id":"66126","nombre":"Or\u00e1n"},"id":"66126020001","localidad_censal":{"id":"66126020","nombre":"Colonia Santa Rosa"},"municipio":{"id":"660294","nombre":"Colonia Santa Rosa"},"nombre":"COLONIA SANTA ROSA","provincia":{"id":"66","nombre":"Salta"}},{"categoria":"Localidad simple","centroide":{"lat":-26.028025694896,"lon":-64.683191460909},"departamento":{"id":"66140","nombre":"Rosario de la Frontera"},"id":"66140020000","localidad_censal":{"id":"66140020","nombre":"Copo Quile"},"municipio":{"id":"660350","nombre":"El Potrero"},"nombre":"COPO QUILE","provincia":{"id":"66","nombre":"Salta"}},{"categoria":"Localidad simple","centroide":{"lat":-22.736606161274,"lon":-63.821234042856},"departamento":{"id":"66056","nombre":"General Jos\u00e9 de San Mart\u00edn"},"id":"66056070000","localidad_censal":{"id":"66056070","nombre":"Coronel Cornejo"},"municipio":{"id":"660147","nombre":"General Mosconi"},"nombre":"CORONEL CORNEJO","provincia":{"id":"66","nombre":"Salta"}},{"categoria":"Localidad simple","centroide":{"lat":-23.483643207823,"lon":-62.891310873334},"departamento":{"id":"66133","nombre":"Rivadavia"},"id":"66133030000","localidad_censal":{"id":"66133030","nombre":"Coronel Juan Sol\u00e1"},"municipio":{"id":"660329","nombre":"Rivadavia Banda Norte"},"nombre":"CORONEL JUAN SOLA","provincia":{"id":"66","nombre":"Salta"}},{"categoria":"Localidad simple","centroide":{"lat":-25.288940468142,"lon":-65.474537351034},"departamento":{"id":"66098","nombre":"La Vi\u00f1a"},"id":"66098030000","localidad_censal":{"id":"66098030","nombre":"Coronel Moldes"},"municipio":{"id":"660231","nombre":"Coronel Moldes"},"nombre":"CORONEL MOLDES","provincia":{"id":"66","nombre":"Salta"}},{"categoria":"Localidad simple","centroide":{"lat":-24.51364182876,"lon":-64.064883662558},"departamento":{"id":"66007","nombre":"Anta"},"id":"66007040000","localidad_censal":{"id":"66007040","nombre":"Coronel Mollinedo"},"municipio":{"id":"660007","nombre":"Apolinario Saravia"},"nombre":"CORONEL MOLLINEDO","provincia":{"id":"66","nombre":"Salta"}},{"categoria":"Localidad simple","centroide":{"lat":-25.114692314895,"lon":-64.225866442577},"departamento":{"id":"66007","nombre":"Anta"},"id":"66007050000","localidad_censal":{"id":"66007050","nombre":"Coronel Olleros"},"municipio":{"id":"660028","nombre":"Joaqu\u00edn V. Gonz\u00e1lez"},"nombre":"CORONEL OLLEROS","provincia":{"id":"66","nombre":"Salta"}},{"categoria":"Localidad simple","centroide":{"lat":-23.25818674821,"lon":-63.339055523242},"departamento":{"id":"66056","nombre":"General Jos\u00e9 de San Mart\u00edn"},"id":"66056080000","localidad_censal":{"id":"66056080","nombre":"Dragones"},"municipio":{"id":"660133","nombre":"Embarcaci\u00f3n"},"nombre":"DRAGONES","provincia":{"id":"66","nombre":"Salta"}},{"categoria":"Localidad simple","centroide":{"lat":-25.911918962025,"lon":-65.95096427867},"departamento":{"id":"66154","nombre":"San Carlos"},"id":"66154030000","localidad_censal":{"id":"66154030","nombre":"El Barrial"},"municipio":{"id":"660385","nombre":"Animan\u00e1"},"nombre":"EL BARRIAL","provincia":{"id":"66","nombre":"Salta"}},{"categoria":"Localidad simple","centroide":{"lat":-24.661074329137,"lon":-65.105429886639},"departamento":{"id":"66049","nombre":"General G\u00fcemes"},"id":"66049030000","localidad_censal":{"id":"66049030","nombre":"El Bordo"},"municipio":{"id":"660112","nombre":"El Bordo"},"nombre":"EL BORDO","provincia":{"id":"66","nombre":"Salta"}},{"categoria":"Localidad simple","centroide":{"lat":-25.07685470284,"lon":-65.493847391971},"departamento":{"id":"66042","nombre":"Chicoana"},"id":"66042020000","localidad_censal":{"id":"66042020","nombre":"El Carril"},"municipio":{"id":"660098","nombre":"El Carril"},"nombre":"EL CARRIL","provincia":{"id":"66","nombre":"Salta"}},{"categoria":"Localidad simple","centroide":{"lat":-25.391586450397,"lon":-64.659506293399},"departamento":{"id":"66112","nombre":"Met\u00e1n"},"id":"66112010000","localidad_censal":{"id":"66112010","nombre":"El Galp\u00f3n"},"municipio":{"id":"660259","nombre":"El Galp\u00f3n"},"nombre":"EL GALPON","provincia":{"id":"66","nombre":"Salta"}},{"categoria":"Localidad simple","centroide":{"lat":-26.093883419979,"lon":-65.41384156239},"departamento":{"id":"66084","nombre":"La Candelaria"},"id":"66084010000","localidad_censal":{"id":"66084010","nombre":"El Jard\u00edn"},"municipio":{"id":"660203","nombre":"El Jard\u00edn"},"nombre":"EL JARDIN","provincia":{"id":"66","nombre":"Salta"}},{"categoria":"Localidad simple","centroide":{"lat":-25.737609252873,"lon":-65.019788785707},"departamento":{"id":"66140","nombre":"Rosario de la Frontera"},"id":"66140030000","localidad_censal":{"id":"66140030","nombre":"El Naranjo"},"municipio":{"id":"660357","nombre":"Rosario de la Frontera"},"nombre":"EL NARANJO","provincia":{"id":"66","nombre":"Salta"}},{"categoria":"Localidad simple","centroide":{"lat":-26.063895233234,"lon":-64.656831424558},"departamento":{"id":"66140","nombre":"Rosario de la Frontera"},"id":"66140040000","localidad_censal":{"id":"66140040","nombre":"El Potrero"},"municipio":{"id":"660350","nombre":"El Potrero"},"nombre":"EL POTRERO","provincia":{"id":"66","nombre":"Salta"}},{"categoria":"Localidad simple","centroide":{"lat":-25.351982182498,"lon":-64.028796388781},"departamento":{"id":"66007","nombre":"Anta"},"id":"66007060000","localidad_censal":{"id":"66007060","nombre":"El Quebrachal"},"municipio":{"id":"660014","nombre":"El Quebrachal"},"nombre":"EL QUEBRACHAL","provincia":{"id":"66","nombre":"Salta"}},{"categoria":"Localidad simple","centroide":{"lat":-23.250027036109,"lon":-64.244505893839},"departamento":{"id":"66126","nombre":"Or\u00e1n"},"id":"66126030000","localidad_censal":{"id":"66126030","nombre":"El Tabacal"},"municipio":{"id":"660301","nombre":"Hip\u00f3lito Yrigoyen"},"nombre":"EL TABACAL","provincia":{"id":"66","nombre":"Salta"}},{"categoria":"Localidad simple","centroide":{"lat":-26.120891757831,"lon":-65.287305878769},"departamento":{"id":"66084","nombre":"La Candelaria"},"id":"66084020000","localidad_censal":{"id":"66084020","nombre":"El Tala"},"municipio":{"id":"660210","nombre":"El Tala"},"nombre":"EL TALA","provincia":{"id":"66","nombre":"Salta"}},{"categoria":"Localidad simple","centroide":{"lat":-25.265264577151,"lon":-64.406104222715},"departamento":{"id":"66112","nombre":"Met\u00e1n"},"id":"66112020000","localidad_censal":{"id":"66112020","nombre":"El Tunal"},"municipio":{"id":"660259","nombre":"El Galp\u00f3n"},"nombre":"EL TUNAL","provincia":{"id":"66","nombre":"Salta"}},{"categoria":"Localidad simple con entidad","centroide":{"lat":-23.204213526983,"lon":-64.090081793634},"departamento":{"id":"66056","nombre":"General Jos\u00e9 de San Mart\u00edn"},"id":"66056090000","localidad_censal":{"id":"66056090","nombre":"Embarcaci\u00f3n"},"municipio":{"id":"660133","nombre":"Embarcaci\u00f3n"},"nombre":"EMBARCACION","provincia":{"id":"66","nombre":"Salta"}},{"categoria":"Entidad","centroide":{"lat":-23.235086833566,"lon":-64.012292614667},"departamento":{"id":"66056","nombre":"General Jos\u00e9 de San Mart\u00edn"},"id":"66056090001","localidad_censal":{"id":"66056090","nombre":"Embarcaci\u00f3n"},"municipio":{"id":"660133","nombre":"Embarcaci\u00f3n"},"nombre":"EMBARCACION","provincia":{"id":"66","nombre":"Salta"}},{"categoria":"Localidad simple","centroide":{"lat":-25.258175032561,"lon":-64.047024300243},"departamento":{"id":"66007","nombre":"Anta"},"id":"66007070000","localidad_censal":{"id":"66007070","nombre":"Gaona"},"municipio":{"id":"660014","nombre":"El Quebrachal"},"nombre":"GAONA","provincia":{"id":"66","nombre":"Salta"}},{"categoria":"Localidad simple","centroide":{"lat":-22.927610522543,"lon":-63.852293442404},"departamento":{"id":"66056","nombre":"General Jos\u00e9 de San Mart\u00edn"},"id":"66056100000","localidad_censal":{"id":"66056100","nombre":"General Ballivi\u00e1n"},"municipio":{"id":"660140","nombre":"General Ballivi\u00e1n"},"nombre":"GENERAL BALLIVIAN","provincia":{"id":"66","nombre":"Salta"}},{"categoria":"Localidad simple","centroide":{"lat":-24.668443619838,"lon":-65.049352775524},"departamento":{"id":"66049","nombre":"General G\u00fcemes"},"id":"66049040000","localidad_censal":{"id":"66049040","nombre":"General G\u00fcemes"},"municipio":{"id":"660119","nombre":"General G\u00fcemes"},"nombre":"GENERAL GUEMES","provincia":{"id":"66","nombre":"Salta"}},{"categoria":"Localidad simple con entidad","centroide":{"lat":-22.587298453187,"lon":-63.807509866284},"departamento":{"id":"66056","nombre":"General Jos\u00e9 de San Mart\u00edn"},"id":"66056110000","localidad_censal":{"id":"66056110","nombre":"General Mosconi"},"municipio":{"id":"660147","nombre":"General Mosconi"},"nombre":"GENERAL MOSCONI","provincia":{"id":"66","nombre":"Salta"}},{"categoria":"Entidad","centroide":{"lat":-22.588862646845,"lon":-63.811889812313},"departamento":{"id":"66056","nombre":"General Jos\u00e9 de San Mart\u00edn"},"id":"66056110001","localidad_censal":{"id":"66056110","nombre":"General Mosconi"},"municipio":{"id":"660147","nombre":"General Mosconi"},"nombre":"GENERAL MOSCONI","provincia":{"id":"66","nombre":"Salta"}},{"categoria":"Localidad simple","centroide":{"lat":-24.234224849758,"lon":-63.991091539585},"departamento":{"id":"66007","nombre":"Anta"},"id":"66007080000","localidad_censal":{"id":"66007080","nombre":"General Pizarro"},"municipio":{"id":"660021","nombre":"General Pizarro"},"nombre":"GENERAL PIZARRO","provincia":{"id":"66","nombre":"Salta"}},{"categoria":"Localidad simple","centroide":{"lat":-25.523548472446,"lon":-65.518764450114},"departamento":{"id":"66063","nombre":"Guachipas"},"id":"66063010000","localidad_censal":{"id":"66063010","nombre":"Guachipas"},"municipio":{"id":"660168","nombre":"Guachipas"},"nombre":"GUACHIPAS","provincia":{"id":"66","nombre":"Salta"}},{"categoria":"Localidad simple","centroide":{"lat":-23.217488489719,"lon":-63.564362473706},"departamento":{"id":"66056","nombre":"General Jos\u00e9 de San Mart\u00edn"},"id":"66056120000","localidad_censal":{"id":"66056120","nombre":"Hickman"},"municipio":{"id":"660133","nombre":"Embarcaci\u00f3n"},"nombre":"HICKMAN","provincia":{"id":"66","nombre":"Salta"}},{"categoria":"Localidad simple","centroide":{"lat":-23.238270247907,"lon":-64.271812536011},"departamento":{"id":"66126","nombre":"Or\u00e1n"},"id":"66126040000","localidad_censal":{"id":"66126040","nombre":"Hip\u00f3lito Yrigoyen"},"municipio":{"id":"660301","nombre":"Hip\u00f3lito Yrigoyen"},"nombre":"HIPOLITO YRIGOYEN","provincia":{"id":"66","nombre":"Salta"}},{"categoria":"Localidad simple","centroide":{"lat":-21.999710968241,"lon":-62.82373828},"departamento":{"id":"66133","nombre":"Rivadavia"},"id":"66133035000","localidad_censal":{"id":"66133035","nombre":"Hito 1"},"municipio":{"id":"660343","nombre":"Santa Victoria Este"},"nombre":"HITO 1","provincia":{"id":"66","nombre":"Salta"}},{"categoria":"Localidad simple","centroide":{"lat":-22.778915876579,"lon":-65.206359813637},"departamento":{"id":"66070","nombre":"Iruya"},"id":"66070010000","localidad_censal":{"id":"66070010","nombre":"Iruya"},"municipio":{"id":"660175","nombre":"Iruya"},"nombre":"IRUYA","provincia":{"id":"66","nombre":"Salta"}},{"categoria":"Localidad simple","centroide":{"lat":-22.88642002529,"lon":-64.65737571922},"departamento":{"id":"66070","nombre":"Iruya"},"id":"66070020000","localidad_censal":{"id":"66070020","nombre":"Isla de Ca\u00f1as"},"municipio":{"id":"660182","nombre":"Isla de Ca\u00f1as"},"nombre":"ISLA DE CA\u00d1AS","provincia":{"id":"66","nombre":"Salta"}},{"categoria":"Localidad simple","centroide":{"lat":-25.129432470781,"lon":-64.13858936948},"departamento":{"id":"66007","nombre":"Anta"},"id":"66007090000","localidad_censal":{"id":"66007090","nombre":"Joaqu\u00edn V. Gonz\u00e1lez"},"municipio":{"id":"660028","nombre":"Joaqu\u00edn V. Gonz\u00e1lez"},"nombre":"JOAQUIN V. GONZALEZ","provincia":{"id":"66","nombre":"Salta"}},{"categoria":"Localidad simple","centroide":{"lat":-24.604948623422,"lon":-65.382337730299},"departamento":{"id":"66077","nombre":"La Caldera"},"id":"66077010000","localidad_censal":{"id":"66077010","nombre":"La Caldera"},"municipio":{"id":"660189","nombre":"La Caldera"},"nombre":"LA CALDERA","provincia":{"id":"66","nombre":"Salta"}},{"categoria":"Localidad simple","centroide":{"lat":-26.096179008984,"lon":-65.06101195251},"departamento":{"id":"66084","nombre":"La Candelaria"},"id":"66084030000","localidad_censal":{"id":"66084030","nombre":"La Candelaria"},"municipio":{"id":"660217","nombre":"La Candelaria"},"nombre":"LA CANDELARIA","provincia":{"id":"66","nombre":"Salta"}},{"categoria":"Entidad","centroide":{"lat":-24.808615322821,"lon":-65.512734155144},"departamento":{"id":"66028","nombre":"Capital"},"id":"66028030002","localidad_censal":{"id":"66028030","nombre":"La Ci\u00e9naga y Barrio San Rafael"},"municipio":{"id":"660070","nombre":"San Lorenzo"},"nombre":"LA CIENAGA","provincia":{"id":"66","nombre":"Salta"}},{"categoria":"Componente de localidad compuesta","centroide":{"lat":-25.151234705001,"lon":-65.442610686249},"departamento":{"id":"66042","nombre":"Chicoana"},"id":"66042003000","localidad_censal":{"id":"66042003","nombre":"Barrio Finca La Maroma"},"municipio":{"id":"660091","nombre":"Chicoana"},"nombre":"LA MAROMA","provincia":{"id":"66","nombre":"Salta"}},{"categoria":"Localidad simple","centroide":{"lat":-24.966089649344,"lon":-65.489590103681},"departamento":{"id":"66035","nombre":"Cerrillos"},"id":"66035020000","localidad_censal":{"id":"66035020","nombre":"La Merced"},"municipio":{"id":"660084","nombre":"La Merced"},"nombre":"LA MERCED","provincia":{"id":"66","nombre":"Salta"}},{"categoria":"Componente de localidad compuesta","centroide":{"lat":-24.870964612411,"lon":-65.560760473124},"departamento":{"id":"66147","nombre":"Rosario de Lerma"},"id":"66147015000","localidad_censal":{"id":"66147015","nombre":"La Merced del Enc\u00f3n"},"municipio":{"id":"660371","nombre":"Rosario de Lerma"},"nombre":"LA MERCED DEL ENCON","provincia":{"id":"66","nombre":"Salta"}},{"categoria":"Entidad","centroide":{"lat":-23.315462903346,"lon":-64.407709205657},"departamento":{"id":"66126","nombre":"Or\u00e1n"},"id":"66126020002","localidad_censal":{"id":"66126020","nombre":"Colonia Santa Rosa"},"municipio":{"id":"660294","nombre":"Colonia Santa Rosa"},"nombre":"LA MISION","provincia":{"id":"66","nombre":"Salta"}},{"categoria":"Localidad simple","centroide":{"lat":-24.712901049306,"lon":-66.199738517646},"departamento":{"id":"66091","nombre":"La Poma"},"id":"66091020000","localidad_censal":{"id":"66091020","nombre":"La Poma"},"municipio":{"id":"660224","nombre":"La Poma"},"nombre":"LA POMA","provincia":{"id":"66","nombre":"Salta"}},{"categoria":"Localidad simple","centroide":{"lat":-25.280453814951,"lon":-66.45083965665},"departamento":{"id":"66119","nombre":"Molinos"},"id":"66119010000","localidad_censal":{"id":"66119010","nombre":"La Puerta"},"municipio":{"id":"660273","nombre":"Molinos"},"nombre":"LA PUERTA","provincia":{"id":"66","nombre":"Salta"}},{"categoria":"Localidad simple","centroide":{"lat":-24.878464325645,"lon":-65.59017949743},"departamento":{"id":"66147","nombre":"Rosario de Lerma"},"id":"66147020000","localidad_censal":{"id":"66147020","nombre":"La Silleta"},"municipio":{"id":"660364","nombre":"Campo Quijano"},"nombre":"LA SILLETA","provincia":{"id":"66","nombre":"Salta"}},{"categoria":"Localidad simple","centroide":{"lat":-23.946204699024,"lon":-63.11197274421},"departamento":{"id":"66133","nombre":"Rivadavia"},"id":"66133040000","localidad_censal":{"id":"66133040","nombre":"La Uni\u00f3n"},"municipio":{"id":"660336","nombre":"Rivadavia Banda Sur"},"nombre":"LA UNION","provincia":{"id":"66","nombre":"Salta"}},{"categoria":"Localidad simple","centroide":{"lat":-25.471972461984,"lon":-65.571983889008},"departamento":{"id":"66098","nombre":"La Vi\u00f1a"},"id":"66098040000","localidad_censal":{"id":"66098040","nombre":"La Vi\u00f1a"},"municipio":{"id":"660238","nombre":"La Vi\u00f1a"},"nombre":"LA VI\u00d1A","provincia":{"id":"66","nombre":"Salta"}},{"categoria":"Localidad simple","centroide":{"lat":-24.769049813942,"lon":-65.486033361082},"departamento":{"id":"66028","nombre":"Capital"},"id":"66028040000","localidad_censal":{"id":"66028040","nombre":"Las Costas"},"municipio":{"id":"660070","nombre":"San Lorenzo"},"nombre":"LAS COSTAS","provincia":{"id":"66","nombre":"Salta"}},{"categoria":"Localidad simple","centroide":{"lat":-24.733198844424,"lon":-64.1994831202},"departamento":{"id":"66007","nombre":"Anta"},"id":"66007100000","localidad_censal":{"id":"66007100","nombre":"Las Lajitas"},"municipio":{"id":"660035","nombre":"Las Lajitas"},"nombre":"LAS LAJITAS","provincia":{"id":"66","nombre":"Salta"}},{"categoria":"Localidad simple","centroide":{"lat":-23.630147809494,"lon":-62.597237300918},"departamento":{"id":"66133","nombre":"Rivadavia"},"id":"66133050000","localidad_censal":{"id":"66133050","nombre":"Los Blancos"},"municipio":{"id":"660329","nombre":"Rivadavia Banda Norte"},"nombre":"LOS BLANCOS","provincia":{"id":"66","nombre":"Salta"}},{"categoria":"Localidad simple","centroide":{"lat":-22.252895304918,"lon":-64.681667660374},"departamento":{"id":"66161","nombre":"Santa Victoria"},"id":"66161030000","localidad_censal":{"id":"66161030","nombre":"Los Toldos"},"municipio":{"id":"660399","nombre":"Los Toldos"},"nombre":"LOS TOLDOS","provincia":{"id":"66","nombre":"Salta"}},{"categoria":"Localidad simple","centroide":{"lat":-24.397713500488,"lon":-63.996110804149},"departamento":{"id":"66007","nombre":"Anta"},"id":"66007110000","localidad_censal":{"id":"66007110","nombre":"Luis Burela"},"municipio":{"id":"660021","nombre":"General Pizarro"},"nombre":"LUIS BURELA","provincia":{"id":"66","nombre":"Salta"}},{"categoria":"Localidad simple","centroide":{"lat":-25.217257579026,"lon":-64.9306861458},"departamento":{"id":"66112","nombre":"Met\u00e1n"},"id":"66112030000","localidad_censal":{"id":"66112030","nombre":"Lumbreras"},"municipio":{"id":"660280","nombre":"R\u00edo Piedras"},"nombre":"LUMBRERAS","provincia":{"id":"66","nombre":"Salta"}},{"categoria":"Localidad simple","centroide":{"lat":-25.421569027557,"lon":-63.989604901941},"departamento":{"id":"66007","nombre":"Anta"},"id":"66007120000","localidad_censal":{"id":"66007120","nombre":"Macapillo"},"municipio":{"id":"660014","nombre":"El Quebrachal"},"nombre":"MACAPILLO","provincia":{"id":"66","nombre":"Salta"}},{"categoria":"Localidad simple","centroide":{"lat":-25.541803951798,"lon":-64.984938508788},"departamento":{"id":"66112","nombre":"Met\u00e1n"},"id":"66112050000","localidad_censal":{"id":"66112050","nombre":"Met\u00e1n Viejo"},"municipio":{"id":"660266","nombre":"Met\u00e1n"},"nombre":"METAN VIEJO","provincia":{"id":"66","nombre":"Salta"}},{"categoria":"Localidad simple","centroide":{"lat":-23.276141235383,"lon":-63.736180024065},"departamento":{"id":"66056","nombre":"General Jos\u00e9 de San Mart\u00edn"},"id":"66056130000","localidad_censal":{"id":"66056130","nombre":"Misi\u00f3n Chaque\u00f1a"},"municipio":{"id":"660133","nombre":"Embarcaci\u00f3n"},"nombre":"MISION CHAQUE\u00d1A","provincia":{"id":"66","nombre":"Salta"}},{"categoria":"Entidad","centroide":{"lat":-22.541324909733,"lon":-63.792788875937},"departamento":{"id":"66056","nombre":"General Jos\u00e9 de San Mart\u00edn"},"id":"66056140003","localidad_censal":{"id":"66056140","nombre":"Misi\u00f3n El Cruce - El Milagro - El Jard\u00edn de San Mart\u00edn"},"municipio":{"id":"660161","nombre":"Tartagal"},"nombre":"MISION EL CRUCE","provincia":{"id":"66","nombre":"Salta"}},{"categoria":"Localidad simple","centroide":{"lat":-22.50602282781,"lon":-63.739972190113},"departamento":{"id":"66056","nombre":"General Jos\u00e9 de San Mart\u00edn"},"id":"66056150000","localidad_censal":{"id":"66056150","nombre":"Misi\u00f3n Kil\u00f3metro 6"},"municipio":{"id":"660161","nombre":"Tartagal"},"nombre":"MISION KILOMETRO 6","provincia":{"id":"66","nombre":"Salta"}},{"categoria":"Entidad","centroide":{"lat":-23.264456058845,"lon":-64.005265388319},"departamento":{"id":"66056","nombre":"General Jos\u00e9 de San Mart\u00edn"},"id":"66056090002","localidad_censal":{"id":"66056090","nombre":"Embarcaci\u00f3n"},"municipio":{"id":"660133","nombre":"Embarcaci\u00f3n"},"nombre":"MISION TIERRAS FISCALES","provincia":{"id":"66","nombre":"Salta"}},{"categoria":"Localidad simple","centroide":{"lat":-25.444243293757,"lon":-66.308850089425},"departamento":{"id":"66119","nombre":"Molinos"},"id":"66119020000","localidad_censal":{"id":"66119020","nombre":"Molinos"},"municipio":{"id":"660273","nombre":"Molinos"},"nombre":"MOLINOS","provincia":{"id":"66","nombre":"Salta"}},{"categoria":"Localidad simple","centroide":{"lat":-22.481854450609,"lon":-65.094973341416},"departamento":{"id":"66161","nombre":"Santa Victoria"},"id":"66161040000","localidad_censal":{"id":"66161040","nombre":"Nazareno"},"municipio":{"id":"660406","nombre":"Nazareno"},"nombre":"NAZARENO","provincia":{"id":"66","nombre":"Salta"}},{"categoria":"Localidad simple","centroide":{"lat":-25.481072557645,"lon":-63.788000828171},"departamento":{"id":"66007","nombre":"Anta"},"id":"66007130000","localidad_censal":{"id":"66007130","nombre":"Nuestra Se\u00f1ora de Talavera"},"municipio":{"id":"660014","nombre":"El Quebrachal"},"nombre":"NUESTRA SE\u00d1ORA DE TALAVERA","provincia":{"id":"66","nombre":"Salta"}},{"categoria":"Localidad simple","centroide":{"lat":-24.119774551599,"lon":-66.714259400039},"departamento":{"id":"66105","nombre":"Los Andes"},"id":"66105010000","localidad_censal":{"id":"66105010","nombre":"Olacapato"},"municipio":{"id":"386168","nombre":"Susques"},"nombre":"OLACAPATO","provincia":{"id":"66","nombre":"Salta"}},{"categoria":"Localidad simple","centroide":{"lat":-22.445272342545,"lon":-63.43543212618},"departamento":{"id":"66056","nombre":"General Jos\u00e9 de San Mart\u00edn"},"id":"66056170000","localidad_censal":{"id":"66056170","nombre":"Pacar\u00e1"},"municipio":{"id":"660161","nombre":"Tartagal"},"nombre":"PACARA","provincia":{"id":"66","nombre":"Salta"}},{"categoria":"Localidad simple","centroide":{"lat":-23.215724803759,"lon":-63.842646790673},"departamento":{"id":"66056","nombre":"General Jos\u00e9 de San Mart\u00edn"},"id":"66056180000","localidad_censal":{"id":"66056180","nombre":"Padre Lozano"},"municipio":{"id":"660133","nombre":"Embarcaci\u00f3n"},"nombre":"PADRE LOZANO","provincia":{"id":"66","nombre":"Salta"}},{"categoria":"Localidad simple","centroide":{"lat":-25.04894798042,"lon":-66.102710239731},"departamento":{"id":"66014","nombre":"Cachi"},"id":"66014020000","localidad_censal":{"id":"66014020","nombre":"Payogasta"},"municipio":{"id":"660049","nombre":"Payogasta"},"nombre":"PAYOGASTA","provincia":{"id":"66","nombre":"Salta"}},{"categoria":"Localidad simple","centroide":{"lat":-23.31338965251,"lon":-64.219751841333},"departamento":{"id":"66126","nombre":"Or\u00e1n"},"id":"66126060000","localidad_censal":{"id":"66126060","nombre":"Pichanal"},"municipio":{"id":"660308","nombre":"Pichanal"},"nombre":"PICHANAL","provincia":{"id":"66","nombre":"Salta"}},{"categoria":"Localidad simple","centroide":{"lat":-24.826040667469,"lon":-64.185579066732},"departamento":{"id":"66007","nombre":"Anta"},"id":"66007140000","localidad_censal":{"id":"66007140","nombre":"Piquete Cabado"},"municipio":{"id":"660028","nombre":"Joaqu\u00edn V. Gonz\u00e1lez"},"nombre":"PIQUETE CABADO","provincia":{"id":"66","nombre":"Salta"}},{"categoria":"Localidad simple","centroide":{"lat":-22.3335490812,"lon":-63.759684713586},"departamento":{"id":"66056","nombre":"General Jos\u00e9 de San Mart\u00edn"},"id":"66056190000","localidad_censal":{"id":"66056190","nombre":"Piquirenda"},"municipio":{"id":"660126","nombre":"Aguaray"},"nombre":"PIQUIRENDA","provincia":{"id":"66","nombre":"Salta"}},{"categoria":"Localidad simple","centroide":{"lat":-23.380842632443,"lon":-63.098055649631},"departamento":{"id":"66133","nombre":"Rivadavia"},"id":"66133060000","localidad_censal":{"id":"66133060","nombre":"Pluma de Pato"},"municipio":{"id":"660329","nombre":"Rivadavia Banda Norte"},"nombre":"PLUMA DE PATO","provincia":{"id":"66","nombre":"Salta"}},{"categoria":"Localidad simple","centroide":{"lat":-22.433626612755,"lon":-65.067895713866},"departamento":{"id":"66161","nombre":"Santa Victoria"},"id":"66161050000","localidad_censal":{"id":"66161050","nombre":"Poscaya"},"municipio":{"id":"660406","nombre":"Nazareno"},"nombre":"POSCAYA","provincia":{"id":"66","nombre":"Salta"}},{"categoria":"Localidad simple","centroide":{"lat":-22.05426344191,"lon":-63.687282964967},"departamento":{"id":"66056","nombre":"General Jos\u00e9 de San Mart\u00edn"},"id":"66056200000","localidad_censal":{"id":"66056200","nombre":"Profesor Salvador Mazza"},"municipio":{"id":"660154","nombre":"Profesor Salvador Mazza"},"nombre":"PROFESOR SALVADOR MAZZA","provincia":{"id":"66","nombre":"Salta"}},{"categoria":"Localidad simple","centroide":{"lat":-22.826343023469,"lon":-65.201835675562},"departamento":{"id":"66070","nombre":"Iruya"},"id":"66070030000","localidad_censal":{"id":"66070030","nombre":"Pueblo Viejo"},"municipio":{"id":"660175","nombre":"Iruya"},"nombre":"PUEBLO VIEJO","provincia":{"id":"66","nombre":"Salta"}},{"categoria":"Entidad","centroide":{"lat":-22.449765209117,"lon":-63.885619215536},"departamento":{"id":"66056","nombre":"General Jos\u00e9 de San Mart\u00edn"},"id":"66056110002","localidad_censal":{"id":"66056110","nombre":"General Mosconi"},"municipio":{"id":"660147","nombre":"General Mosconi"},"nombre":"RECAREDO","provincia":{"id":"66","nombre":"Salta"}},{"categoria":"Localidad simple","centroide":{"lat":-24.683968511639,"lon":-64.201788825733},"departamento":{"id":"66007","nombre":"Anta"},"id":"66007150000","localidad_censal":{"id":"66007150","nombre":"R\u00edo del Valle"},"municipio":{"id":"660035","nombre":"Las Lajitas"},"nombre":"RIO DEL VALLE","provincia":{"id":"66","nombre":"Salta"}},{"categoria":"Localidad simple","centroide":{"lat":-25.321181876118,"lon":-64.917329424853},"departamento":{"id":"66112","nombre":"Met\u00e1n"},"id":"66112070000","localidad_censal":{"id":"66112070","nombre":"R\u00edo Piedras"},"municipio":{"id":"660280","nombre":"R\u00edo Piedras"},"nombre":"RIO PIEDRAS","provincia":{"id":"66","nombre":"Salta"}},{"categoria":"Localidad simple","centroide":{"lat":-24.192847929975,"lon":-62.885584618874},"departamento":{"id":"66133","nombre":"Rivadavia"},"id":"66133070000","localidad_censal":{"id":"66133070","nombre":"Rivadavia"},"municipio":{"id":"660336","nombre":"Rivadavia Banda Sur"},"nombre":"RIVADAVIA","provincia":{"id":"66","nombre":"Salta"}},{"categoria":"Localidad simple","centroide":{"lat":-25.808897182087,"lon":-64.984061824278},"departamento":{"id":"66140","nombre":"Rosario de la Frontera"},"id":"66140050000","localidad_censal":{"id":"66140050","nombre":"Rosario de la Frontera"},"municipio":{"id":"660357","nombre":"Rosario de la Frontera"},"nombre":"ROSARIO DE LA FRONTERA","provincia":{"id":"66","nombre":"Salta"}},{"categoria":"Localidad simple","centroide":{"lat":-24.978000550677,"lon":-65.580431618173},"departamento":{"id":"66147","nombre":"Rosario de Lerma"},"id":"66147030000","localidad_censal":{"id":"66147030","nombre":"Rosario de Lerma"},"municipio":{"id":"660371","nombre":"Rosario de Lerma"},"nombre":"ROSARIO DE LERMA","provincia":{"id":"66","nombre":"Salta"}},{"categoria":"Componente de localidad compuesta con entidad","centroide":{"lat":-24.782376640316,"lon":-65.414132999106},"departamento":{"id":"66028","nombre":"Capital"},"id":"66028050000","localidad_censal":{"id":"66028050","nombre":"Salta"},"municipio":{"id":"660063","nombre":"Salta"},"nombre":"SALTA","provincia":{"id":"66","nombre":"Salta"}},{"categoria":"Entidad","centroide":{"lat":-24.786554880671,"lon":-65.397635420271},"departamento":{"id":"66028","nombre":"Capital"},"id":"66028050003","localidad_censal":{"id":"66028050","nombre":"Salta"},"municipio":{"id":"660063","nombre":"Salta"},"nombre":"SALTA","provincia":{"id":"66","nombre":"Salta"}},{"categoria":"Localidad simple","centroide":{"lat":-24.99678960881,"lon":-65.437759933162},"departamento":{"id":"66035","nombre":"Cerrillos"},"id":"66035030000","localidad_censal":{"id":"66035030","nombre":"San Agust\u00edn"},"municipio":{"id":"660084","nombre":"La Merced"},"nombre":"SAN AGUSTIN","provincia":{"id":"66","nombre":"Salta"}},{"categoria":"Localidad simple","centroide":{"lat":-24.209931002964,"lon":-66.315435998094},"departamento":{"id":"66105","nombre":"Los Andes"},"id":"66105020000","localidad_censal":{"id":"66105020","nombre":"San Antonio de los Cobres"},"municipio":{"id":"660245","nombre":"San Antonio de los Cobres"},"nombre":"SAN ANTONIO DE LOS COBRES","provincia":{"id":"66","nombre":"Salta"}},{"categoria":"Localidad simple","centroide":{"lat":-25.895449653735,"lon":-65.93741154602},"departamento":{"id":"66154","nombre":"San Carlos"},"id":"66154040000","localidad_censal":{"id":"66154040","nombre":"San Carlos"},"municipio":{"id":"660392","nombre":"San Carlos"},"nombre":"SAN CARLOS","provincia":{"id":"66","nombre":"Salta"}},{"categoria":"Localidad simple","centroide":{"lat":-25.723112512728,"lon":-64.826062667777},"departamento":{"id":"66140","nombre":"Rosario de la Frontera"},"id":"66140060000","localidad_censal":{"id":"66140060","nombre":"San Felipe"},"municipio":{"id":"660357","nombre":"Rosario de la Frontera"},"nombre":"SAN FELIPE","provincia":{"id":"66","nombre":"Salta"}},{"categoria":"Localidad simple","centroide":{"lat":-25.507720537715,"lon":-64.98212454093},"departamento":{"id":"66112","nombre":"Met\u00e1n"},"id":"66112040000","localidad_censal":{"id":"66112040","nombre":"San Jos\u00e9 de Met\u00e1n (Est. Met\u00e1n)"},"municipio":{"id":"660266","nombre":"Met\u00e1n"},"nombre":"SAN JOSE DE METAN","provincia":{"id":"66","nombre":"Salta"}},{"categoria":"Localidad simple","centroide":{"lat":-25.278309416537,"lon":-64.085056164847},"departamento":{"id":"66112","nombre":"Met\u00e1n"},"id":"66112080000","localidad_censal":{"id":"66112080","nombre":"San Jos\u00e9 de Orquera"},"municipio":{"id":"660259","nombre":"El Galp\u00f3n"},"nombre":"SAN JOSE DE ORQUERA","provincia":{"id":"66","nombre":"Salta"}},{"categoria":"Localidad simple","centroide":{"lat":-22.50900544813,"lon":-65.101242383906},"departamento":{"id":"66161","nombre":"Santa Victoria"},"id":"66161060000","localidad_censal":{"id":"66161060","nombre":"San Marcos"},"municipio":{"id":"660406","nombre":"Nazareno"},"nombre":"SAN MARCOS","provincia":{"id":"66","nombre":"Salta"}},{"categoria":"Localidad simple","centroide":{"lat":-23.129813887392,"lon":-64.318588474704},"departamento":{"id":"66126","nombre":"Or\u00e1n"},"id":"66126070000","localidad_censal":{"id":"66126070","nombre":"San Ram\u00f3n de la Nueva Or\u00e1n"},"municipio":{"id":"660315","nombre":"San Ram\u00f3n de la Nueva Or\u00e1n"},"nombre":"SAN RAMON DE LA NUEVA ORAN","provincia":{"id":"66","nombre":"Salta"}},{"categoria":"Localidad simple","centroide":{"lat":-22.139497525636,"lon":-62.838324589023},"departamento":{"id":"66133","nombre":"Rivadavia"},"id":"66133080000","localidad_censal":{"id":"66133080","nombre":"Santa Mar\u00eda"},"municipio":{"id":"660343","nombre":"Santa Victoria Este"},"nombre":"SANTA MARIA","provincia":{"id":"66","nombre":"Salta"}},{"categoria":"Localidad simple","centroide":{"lat":-24.076376585312,"lon":-63.123677368136},"departamento":{"id":"66133","nombre":"Rivadavia"},"id":"66133090000","localidad_censal":{"id":"66133090","nombre":"Santa Rosa"},"municipio":{"id":"660336","nombre":"Rivadavia Banda Sur"},"nombre":"SANTA ROSA","provincia":{"id":"66","nombre":"Salta"}},{"categoria":"Localidad simple","centroide":{"lat":-24.478105777316,"lon":-66.678540066759},"departamento":{"id":"66105","nombre":"Los Andes"},"id":"66105030000","localidad_censal":{"id":"66105030","nombre":"Santa Rosa de los Pastos Grandes"},"municipio":{"id":"660245","nombre":"San Antonio de los Cobres"},"nombre":"SANTA ROSA DE LOS PASTOS GRANDES","provincia":{"id":"66","nombre":"Salta"}},{"categoria":"Localidad simple","centroide":{"lat":-22.229461500458,"lon":-64.950325546847},"departamento":{"id":"66161","nombre":"Santa Victoria"},"id":"66161070000","localidad_censal":{"id":"66161070","nombre":"Santa Victoria"},"municipio":{"id":"660413","nombre":"Santa Victoria Oeste"},"nombre":"SANTA VICTORIA","provincia":{"id":"66","nombre":"Salta"}},{"categoria":"Localidad simple","centroide":{"lat":-22.277290330719,"lon":-62.704371945465},"departamento":{"id":"66133","nombre":"Rivadavia"},"id":"66133100000","localidad_censal":{"id":"66133100","nombre":"Santa Victoria Este"},"municipio":{"id":"660343","nombre":"Santa Victoria Este"},"nombre":"SANTA VICTORIA ESTE","provincia":{"id":"66","nombre":"Salta"}},{"categoria":"Localidad simple","centroide":{"lat":-25.330509957445,"lon":-66.248446622861},"departamento":{"id":"66119","nombre":"Molinos"},"id":"66119030000","localidad_censal":{"id":"66119030","nombre":"Seclant\u00e1s"},"municipio":{"id":"660287","nombre":"Seclant\u00e1s"},"nombre":"SECLANTAS","provincia":{"id":"66","nombre":"Salta"}},{"categoria":"Localidad simple","centroide":{"lat":-25.546374628756,"lon":-65.559672881754},"departamento":{"id":"66098","nombre":"La Vi\u00f1a"},"id":"66098050000","localidad_censal":{"id":"66098050","nombre":"Talapampa"},"municipio":{"id":"660238","nombre":"La Vi\u00f1a"},"nombre":"TALAPAMPA","provincia":{"id":"66","nombre":"Salta"}},{"categoria":"Componente de localidad compuesta","centroide":{"lat":-22.509864509945,"lon":-63.79704729961},"departamento":{"id":"66056","nombre":"General Jos\u00e9 de San Mart\u00edn"},"id":"66056220000","localidad_censal":{"id":"66056220","nombre":"Tartagal"},"municipio":{"id":"660161","nombre":"Tartagal"},"nombre":"TARTAGAL","provincia":{"id":"66","nombre":"Salta"}},{"categoria":"Localidad simple","centroide":{"lat":-22.13833247169,"lon":-63.706181967591},"departamento":{"id":"66056","nombre":"General Jos\u00e9 de San Mart\u00edn"},"id":"66056230000","localidad_censal":{"id":"66056230","nombre":"Tobantirenda"},"municipio":{"id":"660126","nombre":"Aguaray"},"nombre":"TOBANTIRENDA","provincia":{"id":"66","nombre":"Salta"}},{"categoria":"Localidad simple","centroide":{"lat":-24.557985194477,"lon":-67.436965367536},"departamento":{"id":"66105","nombre":"Los Andes"},"id":"66105040000","localidad_censal":{"id":"66105040","nombre":"Tolar Grande"},"municipio":{"id":"660252","nombre":"Tolar Grande"},"nombre":"TOLAR GRANDE","provincia":{"id":"66","nombre":"Salta"}},{"categoria":"Localidad simple","centroide":{"lat":-25.546645671014,"lon":-63.534291860175},"departamento":{"id":"66007","nombre":"Anta"},"id":"66007160000","localidad_censal":{"id":"66007160","nombre":"Tolloche"},"municipio":{"id":"660014","nombre":"El Quebrachal"},"nombre":"TOLLOCHE","provincia":{"id":"66","nombre":"Salta"}},{"categoria":"Localidad simple","centroide":{"lat":-26.202957467984,"lon":-65.94679577047},"departamento":{"id":"66021","nombre":"Cafayate"},"id":"66021020000","localidad_censal":{"id":"66021020","nombre":"Tolomb\u00f3n"},"municipio":{"id":"660056","nombre":"Cafayate"},"nombre":"TOLOMBOM","provincia":{"id":"66","nombre":"Salta"}},{"categoria":"Localidad simple","centroide":{"lat":-22.407617415876,"lon":-63.76813993879},"departamento":{"id":"66056","nombre":"General Jos\u00e9 de San Mart\u00edn"},"id":"66056240000","localidad_censal":{"id":"66056240","nombre":"Tranquitas"},"municipio":{"id":"660161","nombre":"Tartagal"},"nombre":"TRANQUITAS","provincia":{"id":"66","nombre":"Salta"}},{"categoria":"Localidad simple","centroide":{"lat":-23.551631467963,"lon":-64.396518804804},"departamento":{"id":"66126","nombre":"Or\u00e1n"},"id":"66126080000","localidad_censal":{"id":"66126080","nombre":"Urundel"},"municipio":{"id":"660322","nombre":"Urundel"},"nombre":"URUNDEL","provincia":{"id":"66","nombre":"Salta"}},{"categoria":"Componente de localidad compuesta","centroide":{"lat":-24.69452119202,"lon":-65.402694418715},"departamento":{"id":"66077","nombre":"La Caldera"},"id":"66077020000","localidad_censal":{"id":"66077020","nombre":"Vaqueros"},"municipio":{"id":"660196","nombre":"Vaqueros"},"nombre":"VAQUEROS","provincia":{"id":"66","nombre":"Salta"}},{"categoria":"Componente de localidad compuesta con entidad","centroide":{"lat":-24.863094297413,"lon":-65.459426847293},"departamento":{"id":"66035","nombre":"Cerrillos"},"id":"66035040000","localidad_censal":{"id":"66035040","nombre":"Villa Los \u00c1lamos - El Congreso - Las Tunas - Los Pinares - Los Olmos"},"municipio":{"id":"660077","nombre":"Cerrillos"},"nombre":"VILLA LOS ALAMOS","provincia":{"id":"66","nombre":"Salta"}},{"categoria":"Entidad","centroide":{"lat":-24.864028734055,"lon":-65.464182356016},"departamento":{"id":"66035","nombre":"Cerrillos"},"id":"66035040005","localidad_censal":{"id":"66035040","nombre":"Villa Los \u00c1lamos - El Congreso - Las Tunas - Los Pinares - Los Olmos"},"municipio":{"id":"660077","nombre":"Cerrillos"},"nombre":"VILLA LOS ALAMOS","provincia":{"id":"66","nombre":"Salta"}},{"categoria":"Localidad simple","centroide":{"lat":-24.733300986565,"lon":-65.484789142623},"departamento":{"id":"66028","nombre":"Capital"},"id":"66028060000","localidad_censal":{"id":"66028060","nombre":"Villa San Lorenzo"},"municipio":{"id":"660070","nombre":"San Lorenzo"},"nombre":"VILLA SAN LORENZO","provincia":{"id":"66","nombre":"Salta"}},{"categoria":"Localidad simple","centroide":{"lat":-22.376576986864,"lon":-63.765430490379},"departamento":{"id":"66056","nombre":"General Jos\u00e9 de San Mart\u00edn"},"id":"66056250000","localidad_censal":{"id":"66056250","nombre":"Yacuy"},"municipio":{"id":"660161","nombre":"Tartagal"},"nombre":"YACUY","provincia":{"id":"66","nombre":"Salta"}}]}