{
    "metadata": {
        "resultset": {
            "count": 4142,
            "offset": 0,
            "limit": 5000
        }
    },
"results":[{"categoria":"Entidad","centroide":{"lat":-33.723994242856,"lon":-65.381037903553},"departamento":{"id":"74035","nombre":"General Pedernera"},"id":"74035080002","localidad_censal":{"id":"74035080","nombre":"Villa Reynolds"},"municipio":{"id":null,"nombre":null},"nombre":"5TA BRIGADA","provincia":{"id":"74","nombre":"San Luis"}},{"categoria":"Localidad simple","centroide":{"lat":-33.842502907221,"lon":-66.137599305655},"departamento":{"id":"74056","nombre":"Juan Mart\u00edn de Pueyrred\u00f3n"},"id":"74056010000","localidad_censal":{"id":"74056010","nombre":"Alto Pelado"},"municipio":{"id":null,"nombre":null},"nombre":"ALTO PELADO","provincia":{"id":"74","nombre":"San Luis"}},{"categoria":"Localidad simple","centroide":{"lat":-33.430636384293,"lon":-66.927966911698},"departamento":{"id":"74056","nombre":"Juan Mart\u00edn de Pueyrred\u00f3n"},"id":"74056020000","localidad_censal":{"id":"74056020","nombre":"Alto Pencoso"},"municipio":{"id":"746238","nombre":"Alto Pencoso"},"nombre":"ALTO PENCOSO","provincia":{"id":"74","nombre":"San Luis"}},{"categoria":"Localidad simple","centroide":{"lat":-35.674645024422,"lon":-65.424423050937},"departamento":{"id":"74042","nombre":"Gobernador Dupuy"},"id":"74042010000","localidad_censal":{"id":"74042010","nombre":"Anchorena"},"municipio":{"id":"746147","nombre":"Anchorena"},"nombre":"ANCHORENA","provincia":{"id":"74","nombre":"San Luis"}},{"categoria":"Localidad simple","centroide":{"lat":-35.722914503118,"lon":-65.318721036008},"departamento":{"id":"74042","nombre":"Gobernador Dupuy"},"id":"74042020000","localidad_censal":{"id":"74042020","nombre":"Arizona"},"municipio":{"id":"746154","nombre":"Arizona"},"nombre":"ARIZONA","provincia":{"id":"74","nombre":"San Luis"}},{"categoria":"Localidad simple","centroide":{"lat":-35.144848451335,"lon":-65.567665245098},"departamento":{"id":"74042","nombre":"Gobernador Dupuy"},"id":"74042030000","localidad_censal":{"id":"74042030","nombre":"Bagual"},"municipio":{"id":"746161","nombre":"Bagual"},"nombre":"BAGUAL","provincia":{"id":"74","nombre":"San Luis"}},{"categoria":"Localidad simple","centroide":{"lat":-33.343269563502,"lon":-66.626047423873},"departamento":{"id":"74056","nombre":"Juan Mart\u00edn de Pueyrred\u00f3n"},"id":"74056030000","localidad_censal":{"id":"74056030","nombre":"Balde"},"municipio":{"id":"746245","nombre":"Balde"},"nombre":"BALDE","provincia":{"id":"74","nombre":"San Luis"}},{"categoria":"Localidad simple","centroide":{"lat":-34.775533255723,"lon":-65.686298714818},"departamento":{"id":"74042","nombre":"Gobernador Dupuy"},"id":"74042040000","localidad_censal":{"id":"74042040","nombre":"Batavia"},"municipio":{"id":"746168","nombre":"Batavia"},"nombre":"BATAVIA","provincia":{"id":"74","nombre":"San Luis"}},{"categoria":"Localidad simple","centroide":{"lat":-33.757734110106,"lon":-66.645960030575},"departamento":{"id":"74056","nombre":"Juan Mart\u00edn de Pueyrred\u00f3n"},"id":"74056040000","localidad_censal":{"id":"74056040","nombre":"Beazley"},"municipio":{"id":"746252","nombre":"Beazley"},"nombre":"BEAZLEY","provincia":{"id":"74","nombre":"San Luis"}},{"categoria":"Localidad simple","centroide":{"lat":-34.758278796894,"lon":-65.250369169447},"departamento":{"id":"74042","nombre":"Gobernador Dupuy"},"id":"74042050000","localidad_censal":{"id":"74042050","nombre":"Buena Esperanza"},"municipio":{"id":"740084","nombre":"Buena Esperanza"},"nombre":"BUENA ESPERANZA","provincia":{"id":"74","nombre":"San Luis"}},{"categoria":"Localidad simple","centroide":{"lat":-32.060749113447,"lon":-65.827691371603},"departamento":{"id":"74007","nombre":"Ayacucho"},"id":"74007010000","localidad_censal":{"id":"74007010","nombre":"Candelaria"},"municipio":{"id":"740007","nombre":"Candelaria"},"nombre":"CANDELARIA","provincia":{"id":"74","nombre":"San Luis"}},{"categoria":"Localidad simple","centroide":{"lat":-32.812857163715,"lon":-66.093232757763},"departamento":{"id":"74021","nombre":"Coronel Pringles"},"id":"74021010000","localidad_censal":{"id":"74021010","nombre":"Carolina"},"municipio":{"id":"746035","nombre":"Carolina"},"nombre":"CAROLINA","provincia":{"id":"74","nombre":"San Luis"}},{"categoria":"Localidad simple","centroide":{"lat":-32.410249512079,"lon":-65.011392676982},"departamento":{"id":"74049","nombre":"Jun\u00edn"},"id":"74049010000","localidad_censal":{"id":"74049010","nombre":"Carpinter\u00eda"},"municipio":{"id":"746203","nombre":"Carpinteria"},"nombre":"CARPINTERIA","provincia":{"id":"74","nombre":"San Luis"}},{"categoria":"Localidad simple","centroide":{"lat":-33.857658477338,"lon":-66.369615066755},"departamento":{"id":"74056","nombre":"Juan Mart\u00edn de Pueyrred\u00f3n"},"id":"74056050000","localidad_censal":{"id":"74056050","nombre":"Cazador"},"municipio":{"id":"746280","nombre":"Zanjitas"},"nombre":"CAZADOR","provincia":{"id":"74","nombre":"San Luis"}},{"categoria":"Entidad","centroide":{"lat":-33.255095534467,"lon":-66.228654830947},"departamento":{"id":"74056","nombre":"Juan Mart\u00edn de Pueyrred\u00f3n"},"id":"74056100001","localidad_censal":{"id":"74056100","nombre":"Juana Koslay"},"municipio":{"id":"740119","nombre":"Juana Koslay"},"nombre":"CERRO COLORADO","provincia":{"id":"74","nombre":"San Luis"}},{"categoria":"Localidad simple","centroide":{"lat":-32.385196336986,"lon":-64.985943610874},"departamento":{"id":"74049","nombre":"Jun\u00edn"},"id":"74049020000","localidad_censal":{"id":"74049020","nombre":"Cerro de Oro"},"municipio":{"id":"740105","nombre":"Merlo"},"nombre":"CERRO DE ORO","provincia":{"id":"74","nombre":"San Luis"}},{"categoria":"Localidad simple","centroide":{"lat":-33.395996894971,"lon":-66.746397383224},"departamento":{"id":"74056","nombre":"Juan Mart\u00edn de Pueyrred\u00f3n"},"id":"74056060000","localidad_censal":{"id":"74056060","nombre":"Chosmes"},"municipio":{"id":null,"nombre":null},"nombre":"CHOSMES","provincia":{"id":"74","nombre":"San Luis"}},{"categoria":"Localidad simple","centroide":{"lat":-33.181657125934,"lon":-66.313607690249},"departamento":{"id":"74056","nombre":"Juan Mart\u00edn de Pueyrred\u00f3n"},"id":"74056105000","localidad_censal":{"id":"74056105","nombre":"La Punta"},"municipio":{"id":"749007","nombre":"La Punta"},"nombre":"CIUDAD DE LA PUNTA","provincia":{"id":"74","nombre":"San Luis"}},{"categoria":"Localidad simple","centroide":{"lat":-32.560727518029,"lon":-65.245280607665},"departamento":{"id":"74028","nombre":"Chacabuco"},"id":"74028010000","localidad_censal":{"id":"74028010","nombre":"Concar\u00e1n"},"municipio":{"id":"740049","nombre":"Concaran"},"nombre":"CONCARAN","provincia":{"id":"74","nombre":"San Luis"}},{"categoria":"Localidad simple","centroide":{"lat":-32.507650424581,"lon":-64.986965515943},"departamento":{"id":"74028","nombre":"Chacabuco"},"id":"74028020000","localidad_censal":{"id":"74028020","nombre":"Cortaderas"},"municipio":{"id":"746070","nombre":"Cortaderas"},"nombre":"CORTADERAS","provincia":{"id":"74","nombre":"San Luis"}},{"categoria":"Entidad","centroide":{"lat":-33.703612577923,"lon":-65.329034091762},"departamento":{"id":"74035","nombre":"General Pedernera"},"id":"74035080001","localidad_censal":{"id":"74035080","nombre":"Villa Reynolds"},"municipio":{"id":null,"nombre":null},"nombre":"COUNTRY CLUB LOS CALDENES","provincia":{"id":"74","nombre":"San Luis"}},{"categoria":"Entidad","centroide":{"lat":-33.266266753132,"lon":-66.21714951797},"departamento":{"id":"74056","nombre":"Juan Mart\u00edn de Pueyrred\u00f3n"},"id":"74056100002","localidad_censal":{"id":"74056100","nombre":"Juana Koslay"},"municipio":{"id":"740119","nombre":"Juana Koslay"},"nombre":"CRUZ DE PIEDRA","provincia":{"id":"74","nombre":"San Luis"}},{"categoria":"Componente de localidad compuesta","centroide":{"lat":-33.400458525577,"lon":-67.148082207766},"departamento":{"id":"74056","nombre":"Juan Mart\u00edn de Pueyrred\u00f3n"},"id":"74056070000","localidad_censal":{"id":"74056070","nombre":"Desaguadero"},"municipio":{"id":"740108","nombre":"Desaguadero"},"nombre":"DESAGUADERO","provincia":{"id":"74","nombre":"San Luis"}},{"categoria":"Entidad","centroide":{"lat":-33.288948454635,"lon":-66.258040625922},"departamento":{"id":"74056","nombre":"Juan Mart\u00edn de Pueyrred\u00f3n"},"id":"74056100003","localidad_censal":{"id":"74056100","nombre":"Juana Koslay"},"municipio":{"id":"740119","nombre":"Juana Koslay"},"nombre":"EL CHORRILLO","provincia":{"id":"74","nombre":"San Luis"}},{"categoria":"Componente de localidad compuesta","centroide":{"lat":-33.108271528098,"lon":-66.063371211902},"departamento":{"id":"74021","nombre":"Coronel Pringles"},"id":"74021020000","localidad_censal":{"id":"74021020","nombre":"El Trapiche"},"municipio":{"id":"746042","nombre":"El Trapiche"},"nombre":"EL TRAPICHE","provincia":{"id":"74","nombre":"San Luis"}},{"categoria":"Localidad simple","centroide":{"lat":-33.251296606763,"lon":-66.187702297197},"departamento":{"id":"74056","nombre":"Juan Mart\u00edn de Pueyrred\u00f3n"},"id":"74056080000","localidad_censal":{"id":"74056080","nombre":"El Volc\u00e1n"},"municipio":{"id":"746259","nombre":"El Volcan"},"nombre":"EL VOLCAN","provincia":{"id":"74","nombre":"San Luis"}},{"categoria":"Localidad simple","centroide":{"lat":-33.19054655266,"lon":-66.152798556635},"departamento":{"id":"74021","nombre":"Coronel Pringles"},"id":"74021025000","localidad_censal":{"id":"74021025","nombre":"Estancia Grande"},"municipio":{"id":"740038","nombre":"Estancia Grande"},"nombre":"ESTANCIA GRANDE","provincia":{"id":"74","nombre":"San Luis"}},{"categoria":"Localidad simple","centroide":{"lat":-34.769756515675,"lon":-65.522934517578},"departamento":{"id":"74042","nombre":"Gobernador Dupuy"},"id":"74042060000","localidad_censal":{"id":"74042060","nombre":"Fort\u00edn El Patria"},"municipio":{"id":"749175","nombre":"Fortin el Patria"},"nombre":"FORTIN EL PATRIA","provincia":{"id":"74","nombre":"San Luis"}},{"categoria":"Localidad simple","centroide":{"lat":-35.12829186356,"lon":-65.381821891771},"departamento":{"id":"74042","nombre":"Gobernador Dupuy"},"id":"74042070000","localidad_censal":{"id":"74042070","nombre":"Fortuna"},"municipio":{"id":"749182","nombre":"Fortuna"},"nombre":"FORTUNA","provincia":{"id":"74","nombre":"San Luis"}},{"categoria":"Localidad simple","centroide":{"lat":-33.502087069887,"lon":-65.792647778976},"departamento":{"id":"74021","nombre":"Coronel Pringles"},"id":"74021030000","localidad_censal":{"id":"74021030","nombre":"Fraga"},"municipio":{"id":"746049","nombre":"Fraga"},"nombre":"FRAGA","provincia":{"id":"74","nombre":"San Luis"}},{"categoria":"Localidad simple","centroide":{"lat":-33.398658341972,"lon":-67.027429547873},"departamento":{"id":"74056","nombre":"Juan Mart\u00edn de Pueyrred\u00f3n"},"id":"74056090000","localidad_censal":{"id":"74056090","nombre":"Jarilla"},"municipio":{"id":"740108","nombre":"Desaguadero"},"nombre":"JARILLA","provincia":{"id":"74","nombre":"San Luis"}},{"categoria":"Localidad simple","centroide":{"lat":-33.613280629984,"lon":-65.271750296301},"departamento":{"id":"74035","nombre":"General Pedernera"},"id":"74035010000","localidad_censal":{"id":"74035010","nombre":"Juan Jorba"},"municipio":{"id":"749119","nombre":"Juan Jorba"},"nombre":"JUAN JORBA","provincia":{"id":"74","nombre":"San Luis"}},{"categoria":"Localidad simple","centroide":{"lat":-33.281113256377,"lon":-65.614576680408},"departamento":{"id":"74035","nombre":"General Pedernera"},"id":"74035020000","localidad_censal":{"id":"74035020","nombre":"Juan Llerena"},"municipio":{"id":"746126","nombre":"Juan Llerena"},"nombre":"JUAN LLERENA","provincia":{"id":"74","nombre":"San Luis"}},{"categoria":"Localidad simple","centroide":{"lat":-33.858583447682,"lon":-65.187040875473},"departamento":{"id":"74035","nombre":"General Pedernera"},"id":"74035030000","localidad_censal":{"id":"74035030","nombre":"Justo Daract"},"municipio":{"id":"740070","nombre":"Justo Daract"},"nombre":"JUSTO DARACT","provincia":{"id":"74","nombre":"San Luis"}},{"categoria":"Localidad simple","centroide":{"lat":-33.157161301266,"lon":-66.013187771464},"departamento":{"id":"74021","nombre":"Coronel Pringles"},"id":"74021040000","localidad_censal":{"id":"74021040","nombre":"La Bajada"},"municipio":{"id":null,"nombre":null},"nombre":"LA BAJADA","provincia":{"id":"74","nombre":"San Luis"}},{"categoria":"Localidad simple","centroide":{"lat":-32.861991895783,"lon":-66.850652976462},"departamento":{"id":"74014","nombre":"Belgrano"},"id":"74014010000","localidad_censal":{"id":"74014010","nombre":"La Calera"},"municipio":{"id":"746014","nombre":"La Calera"},"nombre":"LA CALERA","provincia":{"id":"74","nombre":"San Luis"}},{"categoria":"Localidad simple","centroide":{"lat":-33.116758724871,"lon":-66.002009001827},"departamento":{"id":"74021","nombre":"Coronel Pringles"},"id":"74021050000","localidad_censal":{"id":"74021050","nombre":"La Florida"},"municipio":{"id":"746042","nombre":"El Trapiche"},"nombre":"LA FLORIDA","provincia":{"id":"74","nombre":"San Luis"}},{"categoria":"Localidad simple","centroide":{"lat":-35.212700304513,"lon":-66.326425224558},"departamento":{"id":"74042","nombre":"Gobernador Dupuy"},"id":"74042080000","localidad_censal":{"id":"74042080","nombre":"La Maroma"},"municipio":{"id":null,"nombre":null},"nombre":"LA MAROMA","provincia":{"id":"74","nombre":"San Luis"}},{"categoria":"Localidad simple","centroide":{"lat":-33.142953709962,"lon":-65.086130681187},"departamento":{"id":"74035","nombre":"General Pedernera"},"id":"74035040000","localidad_censal":{"id":"74035040","nombre":"La Punilla"},"municipio":{"id":"746133","nombre":"La Punilla"},"nombre":"LA PUNILLA","provincia":{"id":"74","nombre":"San Luis"}},{"categoria":"Entidad","centroide":{"lat":-33.69181223382,"lon":-65.500731060054},"departamento":{"id":"74035","nombre":"General Pedernera"},"id":"74035070001","localidad_censal":{"id":"74035070","nombre":"Villa Mercedes"},"municipio":{"id":"740077","nombre":"Villa Mercedes"},"nombre":"LA RIBERA","provincia":{"id":"74","nombre":"San Luis"}},{"categoria":"Localidad simple","centroide":{"lat":-33.054437620448,"lon":-65.62269821015},"departamento":{"id":"74021","nombre":"Coronel Pringles"},"id":"74021060000","localidad_censal":{"id":"74021060","nombre":"La Toma"},"municipio":{"id":"740042","nombre":"La Toma"},"nombre":"LA TOMA","provincia":{"id":"74","nombre":"San Luis"}},{"categoria":"Localidad simple","centroide":{"lat":-32.797502774627,"lon":-65.75689743163},"departamento":{"id":"74063","nombre":"Libertador General San Mart\u00edn"},"id":"74063010000","localidad_censal":{"id":"74063010","nombre":"La Vertiente"},"municipio":{"id":"746287","nombre":"Las Vertientes"},"nombre":"LA VERTIENTE","provincia":{"id":"74","nombre":"San Luis"}},{"categoria":"Localidad simple","centroide":{"lat":-32.062115195379,"lon":-65.349681546782},"departamento":{"id":"74049","nombre":"Jun\u00edn"},"id":"74049030000","localidad_censal":{"id":"74049030","nombre":"Lafinur"},"municipio":{"id":"746210","nombre":"Lafinur"},"nombre":"LAFINUR","provincia":{"id":"74","nombre":"San Luis"}},{"categoria":"Localidad simple","centroide":{"lat":-32.376358046013,"lon":-65.5012041382},"departamento":{"id":"74063","nombre":"Libertador General San Mart\u00edn"},"id":"74063020000","localidad_censal":{"id":"74063020","nombre":"Las Aguadas"},"municipio":{"id":"746294","nombre":"Las Aguadas"},"nombre":"LAS AGUADAS","provincia":{"id":"74","nombre":"San Luis"}},{"categoria":"Entidad","centroide":{"lat":-33.260822412154,"lon":-66.238106139823},"departamento":{"id":"74056","nombre":"Juan Mart\u00edn de Pueyrred\u00f3n"},"id":"74056100004","localidad_censal":{"id":"74056100","nombre":"Juana Koslay"},"municipio":{"id":"740119","nombre":"Juana Koslay"},"nombre":"LAS CHACRAS","provincia":{"id":"74","nombre":"San Luis"}},{"categoria":"Localidad simple","centroide":{"lat":-32.543513228654,"lon":-65.744638690122},"departamento":{"id":"74063","nombre":"Libertador General San Mart\u00edn"},"id":"74063030000","localidad_censal":{"id":"74063030","nombre":"Las Chacras"},"municipio":{"id":"746301","nombre":"Las Chacras"},"nombre":"LAS CHACRAS","provincia":{"id":"74","nombre":"San Luis"}},{"categoria":"Localidad simple","centroide":{"lat":-32.629812029629,"lon":-65.551144128608},"departamento":{"id":"74063","nombre":"Libertador General San Mart\u00edn"},"id":"74063040000","localidad_censal":{"id":"74063040","nombre":"Las Lagunas"},"municipio":{"id":"746308","nombre":"Las Lagunas"},"nombre":"LAS LAGUNAS","provincia":{"id":"74","nombre":"San Luis"}},{"categoria":"Localidad simple","centroide":{"lat":-33.822147684074,"lon":-65.423793435816},"departamento":{"id":"74035","nombre":"General Pedernera"},"id":"74035050000","localidad_censal":{"id":"74035050","nombre":"Lavaisse"},"municipio":{"id":"746140","nombre":"Lavaisse"},"nombre":"LAVAISSE","provincia":{"id":"74","nombre":"San Luis"}},{"categoria":"Localidad simple","centroide":{"lat":-32.104782104492,"lon":-65.962112426758},"departamento":{"id":"74007","nombre":"Ayacucho"},"id":"74007030000","localidad_censal":{"id":"74007030","nombre":"Leandro N. Alem"},"municipio":{"id":null,"nombre":null},"nombre":"LEANDRO N. ALEM","provincia":{"id":"74","nombre":"San Luis"}},{"categoria":"Localidad simple","centroide":{"lat":-32.025751304836,"lon":-65.374936147664},"departamento":{"id":"74049","nombre":"Jun\u00edn"},"id":"74049040000","localidad_censal":{"id":"74049040","nombre":"Los Cajones"},"municipio":{"id":null,"nombre":null},"nombre":"LOS CAJONES","provincia":{"id":"74","nombre":"San Luis"}},{"categoria":"Localidad simple","centroide":{"lat":-32.439544750914,"lon":-65.010682268423},"departamento":{"id":"74049","nombre":"Jun\u00edn"},"id":"74049050000","localidad_censal":{"id":"74049050","nombre":"Los Molles"},"municipio":{"id":"746217","nombre":"Los Molles"},"nombre":"LOS MOLLES","provincia":{"id":"74","nombre":"San Luis"}},{"categoria":"Localidad simple","centroide":{"lat":-35.880897104793,"lon":-66.44501425481},"departamento":{"id":"74042","nombre":"Gobernador Dupuy"},"id":"74042090000","localidad_censal":{"id":"74042090","nombre":"Los Overos"},"municipio":{"id":null,"nombre":null},"nombre":"LOS OVEROS","provincia":{"id":"74","nombre":"San Luis"}},{"categoria":"Localidad simple","centroide":{"lat":-32.366034905848,"lon":-65.942543997546},"departamento":{"id":"74007","nombre":"Ayacucho"},"id":"74007040000","localidad_censal":{"id":"74007040","nombre":"Luj\u00e1n"},"municipio":{"id":"740014","nombre":"Lujan"},"nombre":"LUJAN","provincia":{"id":"74","nombre":"San Luis"}},{"categoria":"Localidad simple","centroide":{"lat":-35.711168113122,"lon":-66.352527584494},"departamento":{"id":"74042","nombre":"Gobernador Dupuy"},"id":"74042100000","localidad_censal":{"id":"74042100","nombre":"Mart\u00edn de Loyola"},"municipio":{"id":null,"nombre":null},"nombre":"MARTIN DE LOYOLA","provincia":{"id":"74","nombre":"San Luis"}},{"categoria":"Localidad simple","centroide":{"lat":-32.342539114234,"lon":-65.014137203291},"departamento":{"id":"74049","nombre":"Jun\u00edn"},"id":"74049060000","localidad_censal":{"id":"74049060","nombre":"Merlo"},"municipio":{"id":"740105","nombre":"Merlo"},"nombre":"MERLO","provincia":{"id":"74","nombre":"San Luis"}},{"categoria":"Localidad simple","centroide":{"lat":-33.645891552589,"lon":-66.993449532361},"departamento":{"id":"74056","nombre":"Juan Mart\u00edn de Pueyrred\u00f3n"},"id":"74056110000","localidad_censal":{"id":"74056110","nombre":"Mosmota"},"municipio":{"id":null,"nombre":null},"nombre":"MOSMOTA","provincia":{"id":"74","nombre":"San Luis"}},{"categoria":"Localidad simple","centroide":{"lat":-34.608619000289,"lon":-65.734852998392},"departamento":{"id":"74035","nombre":"General Pedernera"},"id":"74035055000","localidad_censal":{"id":"74035055","nombre":"Naci\u00f3n Ranquel"},"municipio":{"id":"740073","nombre":"Ranqueles"},"nombre":"NACION RANQUEL","provincia":{"id":"74","nombre":"San Luis"}},{"categoria":"Localidad simple","centroide":{"lat":-34.78336786605,"lon":-66.170149829795},"departamento":{"id":"74042","nombre":"Gobernador Dupuy"},"id":"74042110000","localidad_censal":{"id":"74042110","nombre":"Nahuel Map\u00e1"},"municipio":{"id":null,"nombre":null},"nombre":"NAHUEL MAPA","provincia":{"id":"74","nombre":"San Luis"}},{"categoria":"Localidad simple","centroide":{"lat":-32.916821593722,"lon":-65.375547681269},"departamento":{"id":"74028","nombre":"Chacabuco"},"id":"74028030000","localidad_censal":{"id":"74028030","nombre":"Naschel"},"municipio":{"id":"740056","nombre":"Naschel"},"nombre":"NASCHEL","provincia":{"id":"74","nombre":"San Luis"}},{"categoria":"Localidad simple","centroide":{"lat":-34.772673366541,"lon":-66.586278866864},"departamento":{"id":"74042","nombre":"Gobernador Dupuy"},"id":"74042120000","localidad_censal":{"id":"74042120","nombre":"Navia"},"municipio":{"id":"746189","nombre":"Navia"},"nombre":"NAVIA","provincia":{"id":"74","nombre":"San Luis"}},{"categoria":"Localidad simple","centroide":{"lat":-32.917375283104,"lon":-66.325760205835},"departamento":{"id":"74014","nombre":"Belgrano"},"id":"74014020000","localidad_censal":{"id":"74014020","nombre":"Nogol\u00ed"},"municipio":{"id":"746021","nombre":"Nogoli"},"nombre":"NOGOLI","provincia":{"id":"74","nombre":"San Luis"}},{"categoria":"Localidad simple","centroide":{"lat":-35.112474700061,"lon":-65.253210915497},"departamento":{"id":"74042","nombre":"Gobernador Dupuy"},"id":"74042130000","localidad_censal":{"id":"74042130","nombre":"Nueva Galia"},"municipio":{"id":"746196","nombre":"Nueva Galia"},"nombre":"NUEVA GALIA","provincia":{"id":"74","nombre":"San Luis"}},{"categoria":"Localidad simple","centroide":{"lat":-32.6786405437,"lon":-64.988179522368},"departamento":{"id":"74028","nombre":"Chacabuco"},"id":"74028040000","localidad_censal":{"id":"74028040","nombre":"Papagayos"},"municipio":{"id":"746077","nombre":"Papagayos"},"nombre":"PAPAGAYOS","provincia":{"id":"74","nombre":"San Luis"}},{"categoria":"Localidad simple","centroide":{"lat":-32.876973728429,"lon":-65.634530152208},"departamento":{"id":"74063","nombre":"Libertador General San Mart\u00edn"},"id":"74063050000","localidad_censal":{"id":"74063050","nombre":"Paso Grande"},"municipio":{"id":"746315","nombre":"Paso Grande"},"nombre":"PASO GRANDE","provincia":{"id":"74","nombre":"San Luis"}},{"categoria":"Localidad simple","centroide":{"lat":-32.671401244488,"lon":-65.662627221768},"departamento":{"id":"74063","nombre":"Libertador General San Mart\u00edn"},"id":"74063060000","localidad_censal":{"id":"74063060","nombre":"Potrerillo"},"municipio":{"id":null,"nombre":null},"nombre":"POTRERILLO","provincia":{"id":"74","nombre":"San Luis"}},{"categoria":"Localidad simple","centroide":{"lat":-33.218778709143,"lon":-66.230728818301},"departamento":{"id":"74056","nombre":"Juan Mart\u00edn de Pueyrred\u00f3n"},"id":"74056120000","localidad_censal":{"id":"74056120","nombre":"Potrero de los Funes"},"municipio":{"id":"746266","nombre":"P. de los Funes"},"nombre":"POTRERO DE LOS FUNES","provincia":{"id":"74","nombre":"San Luis"}},{"categoria":"Localidad simple","centroide":{"lat":-32.233082236503,"lon":-65.805632996932},"departamento":{"id":"74007","nombre":"Ayacucho"},"id":"74007050000","localidad_censal":{"id":"74007050","nombre":"Quines"},"municipio":{"id":"740021","nombre":"Quines"},"nombre":"QUINES","provincia":{"id":"74","nombre":"San Luis"}},{"categoria":"Localidad simple","centroide":{"lat":-32.771768073665,"lon":-65.363760500765},"departamento":{"id":"74028","nombre":"Chacabuco"},"id":"74028050000","localidad_censal":{"id":"74028050","nombre":"Renca"},"municipio":{"id":"746084","nombre":"Renca"},"nombre":"RENCA","provincia":{"id":"74","nombre":"San Luis"}},{"categoria":"Componente de localidad compuesta","centroide":{"lat":-33.04850460225,"lon":-66.071754308966},"departamento":{"id":"74021","nombre":"Coronel Pringles"},"id":"74021080000","localidad_censal":{"id":"74021080","nombre":"R\u00edo Grande"},"municipio":{"id":"746042","nombre":"El Trapiche"},"nombre":"RIO GRANDE","provincia":{"id":"74","nombre":"San Luis"}},{"categoria":"Localidad simple","centroide":{"lat":-33.096430443976,"lon":-65.990838382791},"departamento":{"id":"74021","nombre":"Coronel Pringles"},"id":"74021070000","localidad_censal":{"id":"74021070","nombre":"Riocito"},"municipio":{"id":"746042","nombre":"El Trapiche"},"nombre":"RIOCITO","provincia":{"id":"74","nombre":"San Luis"}},{"categoria":"Localidad simple","centroide":{"lat":-33.200566491569,"lon":-65.853136337525},"departamento":{"id":"74021","nombre":"Coronel Pringles"},"id":"74021090000","localidad_censal":{"id":"74021090","nombre":"Saladillo"},"municipio":{"id":"746063","nombre":"Saladillo"},"nombre":"SALADILLO","provincia":{"id":"74","nombre":"San Luis"}},{"categoria":"Localidad simple","centroide":{"lat":-33.501125039306,"lon":-66.6514406178},"departamento":{"id":"74056","nombre":"Juan Mart\u00edn de Pueyrred\u00f3n"},"id":"74056130000","localidad_censal":{"id":"74056130","nombre":"Salinas del Bebedero"},"municipio":{"id":"746245","nombre":"Balde"},"nombre":"SALINAS DEL BEBEDERO","provincia":{"id":"74","nombre":"San Luis"}},{"categoria":"Localidad simple","centroide":{"lat":-32.600639224711,"lon":-66.127370263584},"departamento":{"id":"74007","nombre":"Ayacucho"},"id":"74007070000","localidad_censal":{"id":"74007070","nombre":"San Francisco del Monte de Oro"},"municipio":{"id":"740028","nombre":"San Francisco"},"nombre":"SAN FRANCISCO DEL MONTE DE ORO","provincia":{"id":"74","nombre":"San Luis"}},{"categoria":"Localidad simple","centroide":{"lat":-33.138305361175,"lon":-66.516685932659},"departamento":{"id":"74056","nombre":"Juan Mart\u00edn de Pueyrred\u00f3n"},"id":"74056140000","localidad_censal":{"id":"74056140","nombre":"San Jer\u00f3nimo"},"municipio":{"id":"746273","nombre":"San Jeronimo"},"nombre":"SAN JERONIMO","provincia":{"id":"74","nombre":"San Luis"}},{"categoria":"Localidad simple","centroide":{"lat":-33.211985303103,"lon":-65.49273344845},"departamento":{"id":"74035","nombre":"General Pedernera"},"id":"74035060000","localidad_censal":{"id":"74035060","nombre":"San Jos\u00e9 del Morro"},"municipio":{"id":"746112","nombre":"San Jose del Morro"},"nombre":"SAN JOSE DEL MORRO","provincia":{"id":"74","nombre":"San Luis"}},{"categoria":"Componente de localidad compuesta","centroide":{"lat":-33.302313965988,"lon":-66.336087735736},"departamento":{"id":"74056","nombre":"Juan Mart\u00edn de Pueyrred\u00f3n"},"id":"74056150000","localidad_censal":{"id":"74056150","nombre":"San Luis"},"municipio":{"id":"740133","nombre":"San Luis"},"nombre":"SAN LUIS","provincia":{"id":"74","nombre":"San Luis"}},{"categoria":"Localidad simple","centroide":{"lat":-32.413269046375,"lon":-65.675930669012},"departamento":{"id":"74063","nombre":"Libertador General San Mart\u00edn"},"id":"74063070000","localidad_censal":{"id":"74063070","nombre":"San Mart\u00edn"},"municipio":{"id":"740140","nombre":"San Martin"},"nombre":"SAN MARTIN","provincia":{"id":"74","nombre":"San Luis"}},{"categoria":"Localidad simple","centroide":{"lat":-32.658342389353,"lon":-65.308092041146},"departamento":{"id":"74028","nombre":"Chacabuco"},"id":"74028060000","localidad_censal":{"id":"74028060","nombre":"San Pablo"},"municipio":{"id":"746091","nombre":"San Pablo"},"nombre":"SAN PABLO","provincia":{"id":"74","nombre":"San Luis"}},{"categoria":"Entidad","centroide":{"lat":-33.272024897952,"lon":-66.227661976238},"departamento":{"id":"74056","nombre":"Juan Mart\u00edn de Pueyrred\u00f3n"},"id":"74056100005","localidad_censal":{"id":"74056100","nombre":"Juana Koslay"},"municipio":{"id":"740119","nombre":"Juana Koslay"},"nombre":"SAN ROQUE","provincia":{"id":"74","nombre":"San Luis"}},{"categoria":"Localidad simple","centroide":{"lat":-32.342308150994,"lon":-65.207120661412},"departamento":{"id":"74049","nombre":"Jun\u00edn"},"id":"74049070000","localidad_censal":{"id":"74049070","nombre":"Santa Rosa del Conlara"},"municipio":{"id":"740098","nombre":"Sta Rosa del Conlara"},"nombre":"SANTA ROSA DEL CONLARA","provincia":{"id":"74","nombre":"San Luis"}},{"categoria":"Localidad simple","centroide":{"lat":-32.248120308832,"lon":-65.583873408787},"departamento":{"id":"74049","nombre":"Jun\u00edn"},"id":"74049080000","localidad_censal":{"id":"74049080","nombre":"Talita"},"municipio":{"id":"746224","nombre":"Talita"},"nombre":"TALITA","provincia":{"id":"74","nombre":"San Luis"}},{"categoria":"Localidad simple","centroide":{"lat":-32.732928110658,"lon":-65.291527438329},"departamento":{"id":"74028","nombre":"Chacabuco"},"id":"74028070000","localidad_censal":{"id":"74028070","nombre":"Tilisarao"},"municipio":{"id":"740063","nombre":"Tilisarao"},"nombre":"TILISARAO","provincia":{"id":"74","nombre":"San Luis"}},{"categoria":"Localidad simple","centroide":{"lat":-35.15492610612,"lon":-65.942446851146},"departamento":{"id":"74042","nombre":"Gobernador Dupuy"},"id":"74042140000","localidad_censal":{"id":"74042140","nombre":"Uni\u00f3n"},"municipio":{"id":"740091","nombre":"Union"},"nombre":"UNION","provincia":{"id":"74","nombre":"San Luis"}},{"categoria":"Localidad simple","centroide":{"lat":-33.016174193268,"lon":-66.292046480638},"departamento":{"id":"74014","nombre":"Belgrano"},"id":"74014030000","localidad_censal":{"id":"74014030","nombre":"Villa de la Quebrada"},"municipio":{"id":"746028","nombre":"V, de la Quebrada"},"nombre":"VILLA DE LA QUEBRADA","provincia":{"id":"74","nombre":"San Luis"}},{"categoria":"Localidad simple","centroide":{"lat":-32.533964077818,"lon":-65.647704279094},"departamento":{"id":"74063","nombre":"Libertador General San Mart\u00edn"},"id":"74063080000","localidad_censal":{"id":"74063080","nombre":"Villa de Praga"},"municipio":{"id":"746322","nombre":"V, de Praga"},"nombre":"VILLA DE PRAGA","provincia":{"id":"74","nombre":"San Luis"}},{"categoria":"Localidad simple","centroide":{"lat":-32.941126783578,"lon":-65.039466452698},"departamento":{"id":"74028","nombre":"Chacabuco"},"id":"74028080000","localidad_censal":{"id":"74028080","nombre":"Villa del Carmen"},"municipio":{"id":"746098","nombre":"Villa del Carmen"},"nombre":"VILLA DEL CARMEN","provincia":{"id":"74","nombre":"San Luis"}},{"categoria":"Localidad simple","centroide":{"lat":-32.666192563076,"lon":-66.452401017808},"departamento":{"id":"74014","nombre":"Belgrano"},"id":"74014040000","localidad_censal":{"id":"74014040","nombre":"Villa General Roca"},"municipio":{"id":"740035","nombre":"V, Gral, Roca"},"nombre":"VILLA GENERAL ROCA","provincia":{"id":"74","nombre":"San Luis"}},{"categoria":"Localidad simple","centroide":{"lat":-32.617543300877,"lon":-64.980908753555},"departamento":{"id":"74028","nombre":"Chacabuco"},"id":"74028090000","localidad_censal":{"id":"74028090","nombre":"Villa Larca"},"municipio":{"id":"746105","nombre":"Villa Larca"},"nombre":"VILLA LARCA","provincia":{"id":"74","nombre":"San Luis"}},{"categoria":"Localidad simple con entidad","centroide":{"lat":-33.673863640886,"lon":-65.462476529019},"departamento":{"id":"74035","nombre":"General Pedernera"},"id":"74035070000","localidad_censal":{"id":"74035070","nombre":"Villa Mercedes"},"municipio":{"id":"740077","nombre":"Villa Mercedes"},"nombre":"VILLA MERCEDES","provincia":{"id":"74","nombre":"San Luis"}},{"categoria":"Entidad","centroide":{"lat":-33.677369777389,"lon":-65.47314336569},"departamento":{"id":"74035","nombre":"General Pedernera"},"id":"74035070002","localidad_censal":{"id":"74035070","nombre":"Villa Mercedes"},"municipio":{"id":"740077","nombre":"Villa Mercedes"},"nombre":"VILLA MERCEDES","provincia":{"id":"74","nombre":"San Luis"}},{"categoria":"Localidad simple con entidad","centroide":{"lat":-33.722961850163,"lon":-65.381416366013},"departamento":{"id":"74035","nombre":"General Pedernera"},"id":"74035080000","localidad_censal":{"id":"74035080","nombre":"Villa Reynolds"},"municipio":{"id":null,"nombre":null},"nombre":"VILLA REYNOLDS","provincia":{"id":"74","nombre":"San Luis"}},{"categoria":"Localidad simple","centroide":{"lat":-33.84292794921,"lon":-65.214761095518},"departamento":{"id":"74035","nombre":"General Pedernera"},"id":"74035090000","localidad_censal":{"id":"74035090","nombre":"Villa Salles"},"municipio":{"id":"740070","nombre":"Justo Daract"},"nombre":"VILLA SALLES","provincia":{"id":"74","nombre":"San Luis"}},{"categoria":"Localidad simple","centroide":{"lat":-33.80227468441,"lon":-66.415462549085},"departamento":{"id":"74056","nombre":"Juan Mart\u00edn de Pueyrred\u00f3n"},"id":"74056160000","localidad_censal":{"id":"74056160","nombre":"Zanjitas"},"municipio":{"id":"746280","nombre":"Zanjitas"},"nombre":"ZANJITAS","provincia":{"id":"74","nombre":"San Luis"}}]}