{
    "metadata": {
        "resultset": {
            "count": 4142,
            "offset": 0,
            "limit": 5000
        }
    },
"results":[{"categoria":"Localidad simple","centroide":{"lat":-34.334532339605,"lon":-62.374800765635},"departamento":{"id":"82042","nombre":"General L\u00f3pez"},"id":"82042010000","localidad_censal":{"id":"82042010","nombre":"Aar\u00f3n Castellanos"},"municipio":{"id":"822574","nombre":"Aar\u00f3n Castellanos"},"nombre":"AARON CASTELLANOS","provincia":{"id":"82","nombre":"Santa Fe"}},{"categoria":"Localidad simple","centroide":{"lat":-33.2436505577,"lon":-60.837195481459},"departamento":{"id":"82084","nombre":"Rosario"},"id":"82084010000","localidad_censal":{"id":"82084010","nombre":"Ac\u00e9bal"},"municipio":{"id":"823351","nombre":"Acebal"},"nombre":"ACEBAL","provincia":{"id":"82","nombre":"Santa Fe"}},{"categoria":"Localidad simple","centroide":{"lat":-30.109309059922,"lon":-60.94375393224},"departamento":{"id":"82091","nombre":"San Crist\u00f3bal"},"id":"82091010000","localidad_censal":{"id":"82091010","nombre":"Aguar\u00e1 Grande"},"municipio":{"id":"823477","nombre":"Aguar\u00e1 Grande"},"nombre":"AGUARA GRANDE","provincia":{"id":"82","nombre":"Santa Fe"}},{"categoria":"Localidad simple","centroide":{"lat":-33.241303166531,"lon":-60.636575140742},"departamento":{"id":"82084","nombre":"Rosario"},"id":"82084020000","localidad_censal":{"id":"82084020","nombre":"Albarellos"},"municipio":{"id":"823358","nombre":"Albarellos"},"nombre":"ALBARELLOS","provincia":{"id":"82","nombre":"Santa Fe"}},{"categoria":"Localidad simple","centroide":{"lat":-33.540197979109,"lon":-61.124633716392},"departamento":{"id":"82028","nombre":"Villa Constituci\u00f3n"},"id":"82028010000","localidad_censal":{"id":"82028010","nombre":"Alcorta"},"municipio":{"id":"822413","nombre":"Alcorta"},"nombre":"ALCORTA","provincia":{"id":"82","nombre":"Santa Fe"}},{"categoria":"Localidad simple","centroide":{"lat":-30.982347454591,"lon":-61.743986934837},"departamento":{"id":"82021","nombre":"Castellanos"},"id":"82021010000","localidad_censal":{"id":"82021010","nombre":"Aldao"},"municipio":{"id":"822147","nombre":"Colonia Aldao"},"nombre":"ALDAO","provincia":{"id":"82","nombre":"Santa Fe"}},{"categoria":"Localidad simple","centroide":{"lat":-32.706985323603,"lon":-60.817951820236},"departamento":{"id":"82119","nombre":"San Lorenzo"},"id":"82119010000","localidad_censal":{"id":"82119010","nombre":"Aldao"},"municipio":{"id":"823981","nombre":"Aldao"},"nombre":"ALDAO","provincia":{"id":"82","nombre":"Santa Fe"}},{"categoria":"Localidad simple","centroide":{"lat":-29.910356674748,"lon":-59.828161220069},"departamento":{"id":"82098","nombre":"San Javier"},"id":"82098010000","localidad_censal":{"id":"82098010","nombre":"Alejandra"},"municipio":{"id":"823687","nombre":"Alejandra"},"nombre":"ALEJANDRA","provincia":{"id":"82","nombre":"Santa Fe"}},{"categoria":"Localidad simple","centroide":{"lat":-33.130625358525,"lon":-60.803962685993},"departamento":{"id":"82084","nombre":"Rosario"},"id":"82084030000","localidad_censal":{"id":"82084030","nombre":"\u00c1lvarez"},"municipio":{"id":"823365","nombre":"\u00c1lvarez"},"nombre":"ALVAREZ","provincia":{"id":"82","nombre":"Santa Fe"}},{"categoria":"Localidad simple","centroide":{"lat":-33.061458469564,"lon":-60.615976561373},"departamento":{"id":"82084","nombre":"Rosario"},"id":"82084040000","localidad_censal":{"id":"82084040","nombre":"Alvear"},"municipio":{"id":"823372","nombre":"Alvear"},"nombre":"ALVEAR","provincia":{"id":"82","nombre":"Santa Fe"}},{"categoria":"Localidad simple","centroide":{"lat":-30.016999568893,"lon":-61.576578501144},"departamento":{"id":"82091","nombre":"San Crist\u00f3bal"},"id":"82091020000","localidad_censal":{"id":"82091020","nombre":"Ambrosetti"},"municipio":{"id":"823484","nombre":"Ambrosetti"},"nombre":"AMBROSETTI","provincia":{"id":"82","nombre":"Santa Fe"}},{"categoria":"Localidad simple","centroide":{"lat":-34.136118440775,"lon":-62.422908485108},"departamento":{"id":"82042","nombre":"General L\u00f3pez"},"id":"82042020000","localidad_censal":{"id":"82042020","nombre":"Amen\u00e1bar"},"municipio":{"id":"822581","nombre":"Amen\u00e1bar"},"nombre":"AMENABAR","provincia":{"id":"82","nombre":"Santa Fe"}},{"categoria":"Localidad simple","centroide":{"lat":-31.555188491733,"lon":-60.678310824469},"departamento":{"id":"82063","nombre":"La Capital"},"id":"82063010000","localidad_censal":{"id":"82063010","nombre":"Angel Gallardo"},"municipio":{"id":"823001","nombre":"Monte Vera"},"nombre":"ANGEL GALLARDO","provincia":{"id":"82","nombre":"Santa Fe"}},{"categoria":"Localidad simple","centroide":{"lat":-31.552632829611,"lon":-61.54626501731},"departamento":{"id":"82021","nombre":"Castellanos"},"id":"82021020000","localidad_censal":{"id":"82021020","nombre":"Ang\u00e9lica"},"municipio":{"id":"822112","nombre":"Ang\u00e9lica"},"nombre":"ANGELICA","provincia":{"id":"82","nombre":"Santa Fe"}},{"categoria":"Localidad simple","centroide":{"lat":-30.85751770909,"lon":-60.648609868179},"departamento":{"id":"82112","nombre":"San Justo"},"id":"82112010000","localidad_censal":{"id":"82112010","nombre":"Angeloni"},"municipio":{"id":"823862","nombre":"Angeloni"},"nombre":"ANGELONI","provincia":{"id":"82","nombre":"Santa Fe"}},{"categoria":"Localidad simple","centroide":{"lat":-33.091951664851,"lon":-60.699315932465},"departamento":{"id":"82084","nombre":"Rosario"},"id":"82084050000","localidad_censal":{"id":"82084050","nombre":"Arbilla"},"municipio":{"id":"823372","nombre":"Alvear"},"nombre":"ARBILLA","provincia":{"id":"82","nombre":"Santa Fe"}},{"categoria":"Localidad simple","centroide":{"lat":-33.148300837864,"lon":-61.471334934969},"departamento":{"id":"82014","nombre":"Caseros"},"id":"82014010000","localidad_censal":{"id":"82014010","nombre":"Arequito"},"municipio":{"id":"822028","nombre":"Arequito"},"nombre":"AREQUITO","provincia":{"id":"82","nombre":"Santa Fe"}},{"categoria":"Localidad simple","centroide":{"lat":-33.26586152545,"lon":-60.966918839738},"departamento":{"id":"82084","nombre":"Rosario"},"id":"82084060000","localidad_censal":{"id":"82084060","nombre":"Arminda"},"municipio":{"id":"823379","nombre":"Arminda"},"nombre":"ARMINDA","provincia":{"id":"82","nombre":"Santa Fe"}},{"categoria":"Localidad simple","centroide":{"lat":-32.784655700282,"lon":-61.605481877095},"departamento":{"id":"82007","nombre":"Belgrano"},"id":"82007010000","localidad_censal":{"id":"82007010","nombre":"Armstrong"},"municipio":{"id":"820007","nombre":"Armstrong"},"nombre":"ARMSTRONG","provincia":{"id":"82","nombre":"Santa Fe"}},{"categoria":"Localidad simple","centroide":{"lat":-32.080027194293,"lon":-60.977004963957},"departamento":{"id":"82105","nombre":"San Jer\u00f3nimo"},"id":"82105010000","localidad_censal":{"id":"82105010","nombre":"Arocena"},"municipio":{"id":"823722","nombre":"Arocena"},"nombre":"AROCENA","provincia":{"id":"82","nombre":"Santa Fe"}},{"categoria":"Localidad simple","centroide":{"lat":-31.432220370786,"lon":-60.667658877407},"departamento":{"id":"82063","nombre":"La Capital"},"id":"82063020000","localidad_censal":{"id":"82063020","nombre":"Arroyo Aguiar"},"municipio":{"id":"822952","nombre":"Arroyo Aguiar"},"nombre":"ARROYO AGUIAR","provincia":{"id":"82","nombre":"Santa Fe"}},{"categoria":"Localidad simple","centroide":{"lat":-28.725086997062,"lon":-59.48041648076},"departamento":{"id":"82049","nombre":"General Obligado"},"id":"82049010000","localidad_censal":{"id":"82049010","nombre":"Arroyo Ceibal"},"municipio":{"id":"822763","nombre":"Arroyo Ceibal"},"nombre":"ARROYO CEIBAL","provincia":{"id":"82","nombre":"Santa Fe"}},{"categoria":"Entidad","centroide":{"lat":-31.557700539367,"lon":-60.516666561311},"departamento":{"id":"82063","nombre":"La Capital"},"id":"82063030001","localidad_censal":{"id":"82063030","nombre":"Arroyo Leyes"},"municipio":{"id":"822959","nombre":"Arroyo Leyes"},"nombre":"ARROYO LEYES","provincia":{"id":"82","nombre":"Santa Fe"}},{"categoria":"Localidad simple","centroide":{"lat":-33.156022576118,"lon":-60.510130808025},"departamento":{"id":"82084","nombre":"Rosario"},"id":"82084070000","localidad_censal":{"id":"82084070","nombre":"Arroyo Seco"},"municipio":{"id":"820182","nombre":"Arroyo Seco"},"nombre":"ARROYO SECO","provincia":{"id":"82","nombre":"Santa Fe"}},{"categoria":"Localidad simple","centroide":{"lat":-30.234149530146,"lon":-61.728580700125},"departamento":{"id":"82091","nombre":"San Crist\u00f3bal"},"id":"82091030000","localidad_censal":{"id":"82091030","nombre":"Arrufo"},"municipio":{"id":"823491","nombre":"Arrufo"},"nombre":"ARRUFO","provincia":{"id":"82","nombre":"Santa Fe"}},{"categoria":"Localidad simple","centroide":{"lat":-33.091131115491,"lon":-61.791711387617},"departamento":{"id":"82014","nombre":"Caseros"},"id":"82014020000","localidad_censal":{"id":"82014020","nombre":"Arteaga"},"municipio":{"id":"822035","nombre":"Arteaga"},"nombre":"ARTEAGA","provincia":{"id":"82","nombre":"Santa Fe"}},{"categoria":"Localidad simple","centroide":{"lat":-30.998118782394,"lon":-61.43251868892},"departamento":{"id":"82021","nombre":"Castellanos"},"id":"82021030000","localidad_censal":{"id":"82021030","nombre":"Ataliva"},"municipio":{"id":"822119","nombre":"Ataliva"},"nombre":"ATALIVA","provincia":{"id":"82","nombre":"Santa Fe"}},{"categoria":"Localidad simple","centroide":{"lat":-31.423602375735,"lon":-61.424470880915},"departamento":{"id":"82021","nombre":"Castellanos"},"id":"82021040000","localidad_censal":{"id":"82021040","nombre":"Aurelia"},"municipio":{"id":"822126","nombre":"Aurelia"},"nombre":"AURELIA","provincia":{"id":"82","nombre":"Santa Fe"}},{"categoria":"Componente de localidad compuesta","centroide":{"lat":-29.119365978089,"lon":-59.659251244464},"departamento":{"id":"82049","nombre":"General Obligado"},"id":"82049020000","localidad_censal":{"id":"82049020","nombre":"Avellaneda"},"municipio":{"id":"820091","nombre":"Avellaneda"},"nombre":"AVELLANEDA","provincia":{"id":"82","nombre":"Santa Fe"}},{"categoria":"Localidad simple","centroide":{"lat":-29.982737348156,"lon":-61.242865909438},"departamento":{"id":"82091","nombre":"San Crist\u00f3bal"},"id":"82091040000","localidad_censal":{"id":"82091040","nombre":"Balneario La Verde"},"municipio":{"id":"823554","nombre":"Huanqueros"},"nombre":"BALNEARIO LA VERDE","provincia":{"id":"82","nombre":"Santa Fe"}},{"categoria":"Localidad simple","centroide":{"lat":-32.334956086652,"lon":-60.876052253955},"departamento":{"id":"82105","nombre":"San Jer\u00f3nimo"},"id":"82105020000","localidad_censal":{"id":"82105020","nombre":"Balneario Monje"},"municipio":{"id":"823827","nombre":"Monje"},"nombre":"BALNEARIO MONJE","provincia":{"id":"82","nombre":"Santa Fe"}},{"categoria":"Localidad simple","centroide":{"lat":-32.236635781646,"lon":-60.982740133036},"departamento":{"id":"82105","nombre":"San Jer\u00f3nimo"},"id":"82105030000","localidad_censal":{"id":"82105030","nombre":"Barrancas"},"municipio":{"id":"823729","nombre":"Barrancas"},"nombre":"BARRANCAS","provincia":{"id":"82","nombre":"Santa Fe"}},{"categoria":"Componente de localidad compuesta","centroide":{"lat":-33.286066617919,"lon":-60.2720977056},"departamento":{"id":"82028","nombre":"Villa Constituci\u00f3n"},"id":"82028020000","localidad_censal":{"id":"82028020","nombre":"Barrio Arroyo del Medio"},"municipio":{"id":"820056","nombre":"Villa Constituci\u00f3n"},"nombre":"BARRIO ARROYO DEL MEDIO","provincia":{"id":"82","nombre":"Santa Fe"}},{"categoria":"Localidad simple","centroide":{"lat":-31.832080080762,"lon":-60.871964706724},"departamento":{"id":"82105","nombre":"San Jer\u00f3nimo"},"id":"82105040000","localidad_censal":{"id":"82105040","nombre":"Barrio Caima"},"municipio":{"id":"823764","nombre":"Desv\u00edo Arij\u00f3n"},"nombre":"BARRIO CAIMA","provincia":{"id":"82","nombre":"Santa Fe"}},{"categoria":"Localidad simple","centroide":{"lat":-32.6103776107,"lon":-61.324440932202},"departamento":{"id":"82056","nombre":"Iriondo"},"id":"82056010000","localidad_censal":{"id":"82056010","nombre":"Barrio Cicarelli"},"municipio":{"id":"820133","nombre":"Totoras"},"nombre":"BARRIO CICARELLI","provincia":{"id":"82","nombre":"Santa Fe"}},{"categoria":"Localidad simple","centroide":{"lat":-32.131335699822,"lon":-60.928268504918},"departamento":{"id":"82105","nombre":"San Jer\u00f3nimo"},"id":"82105050000","localidad_censal":{"id":"82105050","nombre":"Barrio El Paca\u00e1 - Barrio Comipini"},"municipio":{"id":"823722","nombre":"Arocena"},"nombre":"BARRIO EL PACAA - BARRIO COMIPINI","provincia":{"id":"82","nombre":"Santa Fe"}},{"categoria":"Componente de localidad compuesta","centroide":{"lat":-33.255594638469,"lon":-60.389775870789},"departamento":{"id":"82028","nombre":"Villa Constituci\u00f3n"},"id":"82028030000","localidad_censal":{"id":"82028030","nombre":"Barrio Mitre"},"municipio":{"id":"822490","nombre":"Pav\u00f3n"},"nombre":"BARRIO MITRE","provincia":{"id":"82","nombre":"Santa Fe"}},{"categoria":"Componente de localidad compuesta","centroide":{"lat":-31.419251502146,"lon":-62.059146376237},"departamento":{"id":"82021","nombre":"Castellanos"},"id":"82021050000","localidad_censal":{"id":"82021050","nombre":"Barrios Acapulco y Veracruz"},"municipio":{"id":"822280","nombre":"Josefina"},"nombre":"BARRIOS ACAPULCO Y VERACRUZ","provincia":{"id":"82","nombre":"Santa Fe"}},{"categoria":"Localidad simple","centroide":{"lat":-31.273123218212,"lon":-61.944885496166},"departamento":{"id":"82021","nombre":"Castellanos"},"id":"82021060000","localidad_censal":{"id":"82021060","nombre":"Bauer y Sigel"},"municipio":{"id":"822133","nombre":"Bauer y Sigel"},"nombre":"BAUER Y SIGEL","provincia":{"id":"82","nombre":"Santa Fe"}},{"categoria":"Localidad simple","centroide":{"lat":-31.283979505304,"lon":-61.409342518123},"departamento":{"id":"82021","nombre":"Castellanos"},"id":"82021070000","localidad_censal":{"id":"82021070","nombre":"Bella Italia"},"municipio":{"id":"822140","nombre":"Bella Italia"},"nombre":"BELLA ITALIA","provincia":{"id":"82","nombre":"Santa Fe"}},{"categoria":"Localidad simple","centroide":{"lat":-33.341415221078,"lon":-61.862280980806},"departamento":{"id":"82014","nombre":"Caseros"},"id":"82014030000","localidad_censal":{"id":"82014030","nombre":"Beraveb\u00fa"},"municipio":{"id":"822042","nombre":"Berabev\u00fa"},"nombre":"BERAVEBU","provincia":{"id":"82","nombre":"Santa Fe"}},{"categoria":"Localidad simple","centroide":{"lat":-29.275268107791,"lon":-59.847222183647},"departamento":{"id":"82049","nombre":"General Obligado"},"id":"82049030000","localidad_censal":{"id":"82049030","nombre":"Berna"},"municipio":{"id":"822770","nombre":"Berna"},"nombre":"BERNA","provincia":{"id":"82","nombre":"Santa Fe"}},{"categoria":"Localidad simple","centroide":{"lat":-32.170930618915,"lon":-61.157274828284},"departamento":{"id":"82105","nombre":"San Jer\u00f3nimo"},"id":"82105060000","localidad_censal":{"id":"82105060","nombre":"Bernardo de Irigoyen"},"municipio":{"id":"823736","nombre":"Bernardo de Irigoyen"},"nombre":"BERNARDO DE IRIGOYEN","provincia":{"id":"82","nombre":"Santa Fe"}},{"categoria":"Localidad simple","centroide":{"lat":-33.37611830264,"lon":-61.185501310201},"departamento":{"id":"82014","nombre":"Caseros"},"id":"82014040000","localidad_censal":{"id":"82014040","nombre":"Bigand"},"municipio":{"id":"822049","nombre":"Bigand"},"nombre":"BIGAND","provincia":{"id":"82","nombre":"Santa Fe"}},{"categoria":"Localidad simple","centroide":{"lat":-33.460061521858,"lon":-61.31893243918},"departamento":{"id":"82028","nombre":"Villa Constituci\u00f3n"},"id":"82028040000","localidad_censal":{"id":"82028040","nombre":"Bombal"},"municipio":{"id":"822420","nombre":"Bombal"},"nombre":"BOMBAL","provincia":{"id":"82","nombre":"Santa Fe"}},{"categoria":"Localidad simple","centroide":{"lat":-32.424799856147,"lon":-61.890334586326},"departamento":{"id":"82007","nombre":"Belgrano"},"id":"82007020000","localidad_censal":{"id":"82007020","nombre":"Bouquet"},"municipio":{"id":"822007","nombre":"Bouquet"},"nombre":"BOUQUET","provincia":{"id":"82","nombre":"Santa Fe"}},{"categoria":"Localidad simple","centroide":{"lat":-32.739996177288,"lon":-61.291586973665},"departamento":{"id":"82056","nombre":"Iriondo"},"id":"82056020000","localidad_censal":{"id":"82056020","nombre":"Bustinza"},"municipio":{"id":"822882","nombre":"Bustinza"},"nombre":"BUSTINZA","provincia":{"id":"82","nombre":"Santa Fe"}},{"categoria":"Localidad simple","centroide":{"lat":-31.103990777382,"lon":-60.727152648451},"departamento":{"id":"82063","nombre":"La Capital"},"id":"82063040000","localidad_censal":{"id":"82063040","nombre":"Cabal"},"municipio":{"id":"822966","nombre":"Cabal"},"nombre":"CABAL","provincia":{"id":"82","nombre":"Santa Fe"}},{"categoria":"Localidad simple","centroide":{"lat":-30.658136407494,"lon":-60.230735648811},"departamento":{"id":"82098","nombre":"San Javier"},"id":"82098020000","localidad_censal":{"id":"82098020","nombre":"Cacique Ariacaiqu\u00edn"},"municipio":{"id":"823694","nombre":"Cacique Ariacaiqu\u00edn"},"nombre":"CACIQUE ARIACAIQUIN","provincia":{"id":"82","nombre":"Santa Fe"}},{"categoria":"Localidad simple","centroide":{"lat":-33.441415875893,"lon":-62.086871469266},"departamento":{"id":"82042","nombre":"General L\u00f3pez"},"id":"82042030000","localidad_censal":{"id":"82042030","nombre":"Cafferata"},"municipio":{"id":"822588","nombre":"Cafferata"},"nombre":"CAFFERATA","provincia":{"id":"82","nombre":"Santa Fe"}},{"categoria":"Localidad simple","centroide":{"lat":-29.890543604064,"lon":-60.285737676357},"departamento":{"id":"82133","nombre":"Vera"},"id":"82133010000","localidad_censal":{"id":"82133010","nombre":"Calchaqu\u00ed"},"municipio":{"id":"820329","nombre":"Calchaqu\u00ed"},"nombre":"CALCHAQUI","provincia":{"id":"82","nombre":"Santa Fe"}},{"categoria":"Localidad simple","centroide":{"lat":-31.241069889042,"lon":-60.531189241674},"departamento":{"id":"82063","nombre":"La Capital"},"id":"82063050000","localidad_censal":{"id":"82063050","nombre":"Campo Andino"},"municipio":{"id":"822973","nombre":"Campo Andino"},"nombre":"CAMPO ANDINO","provincia":{"id":"82","nombre":"Santa Fe"}},{"categoria":"Localidad simple","centroide":{"lat":-32.816686729215,"lon":-61.389966146827},"departamento":{"id":"82056","nombre":"Iriondo"},"id":"82056030000","localidad_censal":{"id":"82056030","nombre":"Ca\u00f1ada de G\u00f3mez"},"municipio":{"id":"820126","nombre":"Ca\u00f1ada de G\u00f3mez"},"nombre":"CA\u00d1ADA DE GOMEZ","provincia":{"id":"82","nombre":"Santa Fe"}},{"categoria":"Localidad simple","centroide":{"lat":-33.410344071636,"lon":-61.607043397561},"departamento":{"id":"82042","nombre":"General L\u00f3pez"},"id":"82042040000","localidad_censal":{"id":"82042040","nombre":"Ca\u00f1ada del Ucle"},"municipio":{"id":"822595","nombre":"Ca\u00f1ada del Ucle"},"nombre":"CA\u00d1ADA DEL UCLE","provincia":{"id":"82","nombre":"Santa Fe"}},{"categoria":"Localidad simple","centroide":{"lat":-28.31083042196,"lon":-59.983716645089},"departamento":{"id":"82133","nombre":"Vera"},"id":"82133020000","localidad_censal":{"id":"82133020","nombre":"Ca\u00f1ada Omb\u00fa"},"municipio":{"id":"824142","nombre":"Ca\u00f1ada Omb\u00fa"},"nombre":"CA\u00d1ADA OMBU","provincia":{"id":"82","nombre":"Santa Fe"}},{"categoria":"Localidad simple","centroide":{"lat":-33.517417556125,"lon":-60.613296886771},"departamento":{"id":"82028","nombre":"Villa Constituci\u00f3n"},"id":"82028050000","localidad_censal":{"id":"82028050","nombre":"Ca\u00f1ada Rica"},"municipio":{"id":"822427","nombre":"Ca\u00f1ada Rica"},"nombre":"CA\u00d1ADA RICA","provincia":{"id":"82","nombre":"Santa Fe"}},{"categoria":"Localidad simple","centroide":{"lat":-32.056293403689,"lon":-61.602542994783},"departamento":{"id":"82126","nombre":"San Mart\u00edn"},"id":"82126010000","localidad_censal":{"id":"82126010","nombre":"Ca\u00f1ada Rosqu\u00edn"},"municipio":{"id":"824044","nombre":"Ca\u00f1ada Rosqu\u00edn"},"nombre":"CA\u00d1ADA ROSQUIN","provincia":{"id":"82","nombre":"Santa Fe"}},{"categoria":"Localidad simple","centroide":{"lat":-31.399524403181,"lon":-60.749114928868},"departamento":{"id":"82063","nombre":"La Capital"},"id":"82063060000","localidad_censal":{"id":"82063060","nombre":"Candioti"},"municipio":{"id":"822980","nombre":"Candioti"},"nombre":"CANDIOTI","provincia":{"id":"82","nombre":"Santa Fe"}},{"categoria":"Componente de localidad compuesta","centroide":{"lat":-32.828234944935,"lon":-60.716820755049},"departamento":{"id":"82119","nombre":"San Lorenzo"},"id":"82119020000","localidad_censal":{"id":"82119020","nombre":"Capit\u00e1n Berm\u00fadez"},"municipio":{"id":"820266","nombre":"Capit\u00e1n Berm\u00fadez"},"nombre":"CAPITAN BERMUDEZ","provincia":{"id":"82","nombre":"Santa Fe"}},{"categoria":"Localidad simple","centroide":{"lat":-30.461502817387,"lon":-61.272273512861},"departamento":{"id":"82091","nombre":"San Crist\u00f3bal"},"id":"82091050000","localidad_censal":{"id":"82091050","nombre":"Capivara"},"municipio":{"id":"823498","nombre":"Capivara"},"nombre":"CAPIVARA","provincia":{"id":"82","nombre":"Santa Fe"}},{"categoria":"Localidad simple","centroide":{"lat":-32.858828176016,"lon":-61.152350219743},"departamento":{"id":"82119","nombre":"San Lorenzo"},"id":"82119030000","localidad_censal":{"id":"82119030","nombre":"Carcara\u00f1\u00e1"},"municipio":{"id":"820273","nombre":"Carcara\u00f1\u00e1"},"nombre":"CARCARA\u00d1A","provincia":{"id":"82","nombre":"Santa Fe"}},{"categoria":"Localidad simple","centroide":{"lat":-32.052664237254,"lon":-61.78894991246},"departamento":{"id":"82126","nombre":"San Mart\u00edn"},"id":"82126020000","localidad_censal":{"id":"82126020","nombre":"Carlos Pellegrini"},"municipio":{"id":"824051","nombre":"Carlos Pellegrini"},"nombre":"CARLOS PELLEGRINI","provincia":{"id":"82","nombre":"Santa Fe"}},{"categoria":"Localidad simple","centroide":{"lat":-33.732778862969,"lon":-61.760927147942},"departamento":{"id":"82042","nombre":"General L\u00f3pez"},"id":"82042050000","localidad_censal":{"id":"82042050","nombre":"Carmen"},"municipio":{"id":"822602","nombre":"Carmen"},"nombre":"CARMEN","provincia":{"id":"82","nombre":"Santa Fe"}},{"categoria":"Localidad simple","centroide":{"lat":-33.237687912057,"lon":-60.81186791607},"departamento":{"id":"82084","nombre":"Rosario"},"id":"82084080000","localidad_censal":{"id":"82084080","nombre":"Carmen del Sauce"},"municipio":{"id":"823386","nombre":"Carmen del Sauce"},"nombre":"CARMEN DEL SAUCE","provincia":{"id":"82","nombre":"Santa Fe"}},{"categoria":"Localidad simple","centroide":{"lat":-33.59828345661,"lon":-61.311768436206},"departamento":{"id":"82042","nombre":"General L\u00f3pez"},"id":"82042060000","localidad_censal":{"id":"82042060","nombre":"Carreras"},"municipio":{"id":"822609","nombre":"Carreras"},"nombre":"CARRERAS","provincia":{"id":"82","nombre":"Santa Fe"}},{"categoria":"Localidad simple","centroide":{"lat":-32.511287164271,"lon":-61.030514788548},"departamento":{"id":"82056","nombre":"Iriondo"},"id":"82056040000","localidad_censal":{"id":"82056040","nombre":"Carrizales"},"municipio":{"id":"822889","nombre":"Carrizales"},"nombre":"CARRIZALES","provincia":{"id":"82","nombre":"Santa Fe"}},{"categoria":"Localidad simple","centroide":{"lat":-32.263830624147,"lon":-61.126148865787},"departamento":{"id":"82105","nombre":"San Jer\u00f3nimo"},"id":"82105070000","localidad_censal":{"id":"82105070","nombre":"Casalegno"},"municipio":{"id":"823750","nombre":"Casalegno"},"nombre":"CASALEGNO","provincia":{"id":"82","nombre":"Santa Fe"}},{"categoria":"Localidad simple","centroide":{"lat":-32.127997603946,"lon":-61.542128220081},"departamento":{"id":"82126","nombre":"San Mart\u00edn"},"id":"82126030000","localidad_censal":{"id":"82126030","nombre":"Casas"},"municipio":{"id":"824058","nombre":"Casas"},"nombre":"CASAS","provincia":{"id":"82","nombre":"Santa Fe"}},{"categoria":"Localidad simple","centroide":{"lat":-33.042495554676,"lon":-61.169331118442},"departamento":{"id":"82014","nombre":"Caseros"},"id":"82014050000","localidad_censal":{"id":"82014050","nombre":"Casilda"},"municipio":{"id":"820028","nombre":"Casilda"},"nombre":"CASILDA","provincia":{"id":"82","nombre":"Santa Fe"}},{"categoria":"Localidad simple","centroide":{"lat":-31.66916926748,"lon":-62.089986712052},"departamento":{"id":"82126","nombre":"San Mart\u00edn"},"id":"82126040000","localidad_censal":{"id":"82126040","nombre":"Castelar"},"municipio":{"id":"824065","nombre":"Castelar"},"nombre":"CASTELAR","provincia":{"id":"82","nombre":"Santa Fe"}},{"categoria":"Componente de localidad compuesta","centroide":{"lat":-31.208539656371,"lon":-61.725595556422},"departamento":{"id":"82021","nombre":"Castellanos"},"id":"82021080000","localidad_censal":{"id":"82021080","nombre":"Castellanos"},"municipio":{"id":"822168","nombre":"Castellanos"},"nombre":"CASTELLANOS","provincia":{"id":"82","nombre":"Santa Fe"}},{"categoria":"Localidad simple","centroide":{"lat":-31.36663303236,"lon":-61.017225485325},"departamento":{"id":"82070","nombre":"Las Colonias"},"id":"82070010000","localidad_censal":{"id":"82070010","nombre":"Cavour"},"municipio":{"id":"823036","nombre":"Cavour"},"nombre":"CAVOUR","provincia":{"id":"82","nombre":"Santa Fe"}},{"categoria":"Localidad simple","centroide":{"lat":-31.202325300931,"lon":-60.161450419339},"departamento":{"id":"82035","nombre":"Garay"},"id":"82035010000","localidad_censal":{"id":"82035010","nombre":"Cayast\u00e1"},"municipio":{"id":"822539","nombre":"Cayast\u00e1"},"nombre":"CAYASTA","provincia":{"id":"82","nombre":"Santa Fe"}},{"categoria":"Localidad simple","centroide":{"lat":-31.115007157331,"lon":-60.581400394446},"departamento":{"id":"82112","nombre":"San Justo"},"id":"82112020000","localidad_censal":{"id":"82112020","nombre":"Cayastacito"},"municipio":{"id":"823869","nombre":"Cayastacito"},"nombre":"CAYASTACITO","provincia":{"id":"82","nombre":"Santa Fe"}},{"categoria":"Localidad simple","centroide":{"lat":-32.298023717348,"lon":-61.410724146629},"departamento":{"id":"82105","nombre":"San Jer\u00f3nimo"},"id":"82105080000","localidad_censal":{"id":"82105080","nombre":"Centeno"},"municipio":{"id":"823757","nombre":"Centeno"},"nombre":"CENTENO","provincia":{"id":"82","nombre":"Santa Fe"}},{"categoria":"Localidad simple","centroide":{"lat":-33.398420866143,"lon":-60.624111419901},"departamento":{"id":"82028","nombre":"Villa Constituci\u00f3n"},"id":"82028060000","localidad_censal":{"id":"82028060","nombre":"Cepeda"},"municipio":{"id":"822434","nombre":"Cepeda"},"nombre":"CEPEDA","provincia":{"id":"82","nombre":"Santa Fe"}},{"categoria":"Localidad simple","centroide":{"lat":-29.882337128348,"lon":-61.945237427096},"departamento":{"id":"82091","nombre":"San Crist\u00f3bal"},"id":"82091060000","localidad_censal":{"id":"82091060","nombre":"Ceres"},"municipio":{"id":"820224","nombre":"Ceres"},"nombre":"CERES","provincia":{"id":"82","nombre":"Santa Fe"}},{"categoria":"Localidad simple","centroide":{"lat":-33.24706746432,"lon":-61.357593556183},"departamento":{"id":"82014","nombre":"Caseros"},"id":"82014060000","localidad_censal":{"id":"82014060","nombre":"Chabas"},"municipio":{"id":"822056","nombre":"Chabas"},"nombre":"CHABAS","provincia":{"id":"82","nombre":"Santa Fe"}},{"categoria":"Localidad simple","centroide":{"lat":-33.325840984924,"lon":-62.038649670262},"departamento":{"id":"82014","nombre":"Caseros"},"id":"82014070000","localidad_censal":{"id":"82014070","nombre":"Cha\u00f1ar Ladeado"},"municipio":{"id":"822063","nombre":"Cha\u00f1ar Ladeado"},"nombre":"CHA\u00d1AR LADEADO","provincia":{"id":"82","nombre":"Santa Fe"}},{"categoria":"Localidad simple","centroide":{"lat":-33.800529936897,"lon":-61.744018193685},"departamento":{"id":"82042","nombre":"General L\u00f3pez"},"id":"82042070000","localidad_censal":{"id":"82042070","nombre":"Chapuy"},"municipio":{"id":"822616","nombre":"Chapuy"},"nombre":"CHAPUY","provincia":{"id":"82","nombre":"Santa Fe"}},{"categoria":"Localidad simple","centroide":{"lat":-33.600782513313,"lon":-61.604664660499},"departamento":{"id":"82042","nombre":"General L\u00f3pez"},"id":"82042080000","localidad_censal":{"id":"82042080","nombre":"Chovet"},"municipio":{"id":"822623","nombre":"Chovet"},"nombre":"CHOVET","provincia":{"id":"82","nombre":"Santa Fe"}},{"categoria":"Localidad simple","centroide":{"lat":-34.184619118166,"lon":-62.023532368059},"departamento":{"id":"82042","nombre":"General L\u00f3pez"},"id":"82042090000","localidad_censal":{"id":"82042090","nombre":"Christophersen"},"municipio":{"id":"822630","nombre":"Christophersen"},"nombre":"CHRISTOPHERSEN","provincia":{"id":"82","nombre":"Santa Fe"}},{"categoria":"Localidad simple","centroide":{"lat":-32.463420309576,"lon":-61.291043408544},"departamento":{"id":"82056","nombre":"Iriondo"},"id":"82056050000","localidad_censal":{"id":"82056050","nombre":"Classon"},"municipio":{"id":"822896","nombre":"Clason"},"nombre":"CLASSON","provincia":{"id":"82","nombre":"Santa Fe"}},{"categoria":"Localidad simple","centroide":{"lat":-28.765819043274,"lon":-60.088042143093},"departamento":{"id":"82133","nombre":"Vera"},"id":"82133030000","localidad_censal":{"id":"82133030","nombre":"Colmena"},"municipio":{"id":"824170","nombre":"Intiyaco"},"nombre":"COLMENA","provincia":{"id":"82","nombre":"Santa Fe"}},{"categoria":"Localidad simple","centroide":{"lat":-30.14499983918,"lon":-61.914791746234},"departamento":{"id":"82091","nombre":"San Crist\u00f3bal"},"id":"82091070000","localidad_censal":{"id":"82091070","nombre":"Colonia Ana"},"municipio":{"id":"823505","nombre":"Colonia Ana"},"nombre":"COLONIA ANA","provincia":{"id":"82","nombre":"Santa Fe"}},{"categoria":"Localidad simple","centroide":{"lat":-31.911894083835,"lon":-61.40238353585},"departamento":{"id":"82126","nombre":"San Mart\u00edn"},"id":"82126050000","localidad_censal":{"id":"82126050","nombre":"Colonia Belgrano"},"municipio":{"id":"824072","nombre":"Colonia Belgrano"},"nombre":"COLONIA BELGRANO","provincia":{"id":"82","nombre":"Santa Fe"}},{"categoria":"Localidad simple","centroide":{"lat":-30.855781133807,"lon":-61.850914742017},"departamento":{"id":"82021","nombre":"Castellanos"},"id":"82021090000","localidad_censal":{"id":"82021090","nombre":"Colonia Bicha"},"municipio":{"id":"822154","nombre":"Colonia Bicha"},"nombre":"COLONIA BICHA","provincia":{"id":"82","nombre":"Santa Fe"}},{"categoria":"Localidad simple","centroide":{"lat":-30.669124523343,"lon":-61.789603030036},"departamento":{"id":"82091","nombre":"San Crist\u00f3bal"},"id":"82091080000","localidad_censal":{"id":"82091080","nombre":"Colonia Bossi"},"municipio":{"id":"823512","nombre":"Colonia Bossi"},"nombre":"COLONIA BOSSI","provincia":{"id":"82","nombre":"Santa Fe"}},{"categoria":"Localidad simple","centroide":{"lat":-31.433849725217,"lon":-61.84170217113},"departamento":{"id":"82021","nombre":"Castellanos"},"id":"82021100000","localidad_censal":{"id":"82021100","nombre":"Colonia Cello"},"municipio":{"id":"822175","nombre":"Colonia Cello"},"nombre":"COLONIA CELLO","provincia":{"id":"82","nombre":"Santa Fe"}},{"categoria":"Localidad simple","centroide":{"lat":-30.383682586693,"lon":-60.330725488315},"departamento":{"id":"82112","nombre":"San Justo"},"id":"82112030000","localidad_censal":{"id":"82112030","nombre":"Colonia Dolores"},"municipio":{"id":"823876","nombre":"Colonia Dolores"},"nombre":"COLONIA DOLORES","provincia":{"id":"82","nombre":"Santa Fe"}},{"categoria":"Localidad simple","centroide":{"lat":-29.560753720109,"lon":-59.927069353713},"departamento":{"id":"82098","nombre":"San Javier"},"id":"82098030000","localidad_censal":{"id":"82098030","nombre":"Colonia Dur\u00e1n"},"municipio":{"id":"823701","nombre":"Colonia Dur\u00e1n"},"nombre":"COLONIA DURAN","provincia":{"id":"82","nombre":"Santa Fe"}},{"categoria":"Localidad simple","centroide":{"lat":-31.686833422183,"lon":-61.649296875731},"departamento":{"id":"82021","nombre":"Castellanos"},"id":"82021110000","localidad_censal":{"id":"82021110","nombre":"Colonia Margarita"},"municipio":{"id":"822189","nombre":"Colonia Margarita"},"nombre":"COLONIA MARGARITA","provincia":{"id":"82","nombre":"Santa Fe"}},{"categoria":"Localidad simple","centroide":{"lat":-32.598890325412,"lon":-61.37671216703},"departamento":{"id":"82056","nombre":"Iriondo"},"id":"82056060000","localidad_censal":{"id":"82056060","nombre":"Colonia M\u00e9dici"},"municipio":{"id":"820133","nombre":"Totoras"},"nombre":"COLONIA MEDICI","provincia":{"id":"82","nombre":"Santa Fe"}},{"categoria":"Localidad simple","centroide":{"lat":-30.839223556756,"lon":-61.489711163823},"departamento":{"id":"82021","nombre":"Castellanos"},"id":"82021120000","localidad_censal":{"id":"82021120","nombre":"Colonia Raquel"},"municipio":{"id":"822196","nombre":"Colonia Raquel"},"nombre":"COLONIA RAQUEL","provincia":{"id":"82","nombre":"Santa Fe"}},{"categoria":"Localidad simple","centroide":{"lat":-30.302278588964,"lon":-61.984491370231},"departamento":{"id":"82091","nombre":"San Crist\u00f3bal"},"id":"82091090000","localidad_censal":{"id":"82091090","nombre":"Colonia Rosa"},"municipio":{"id":"823519","nombre":"Colonia Rosa"},"nombre":"COLONIA ROSA","provincia":{"id":"82","nombre":"Santa Fe"}},{"categoria":"Localidad simple","centroide":{"lat":-30.664633909429,"lon":-61.320755216073},"departamento":{"id":"82091","nombre":"San Crist\u00f3bal"},"id":"82091100000","localidad_censal":{"id":"82091100","nombre":"Constanza"},"municipio":{"id":"823526","nombre":"Constanza"},"nombre":"CONSTANZA","provincia":{"id":"82","nombre":"Santa Fe"}},{"categoria":"Localidad simple","centroide":{"lat":-31.975646712145,"lon":-60.920134118813},"departamento":{"id":"82105","nombre":"San Jer\u00f3nimo"},"id":"82105090000","localidad_censal":{"id":"82105090","nombre":"Coronda"},"municipio":{"id":"820245","nombre":"Coronda"},"nombre":"CORONDA","provincia":{"id":"82","nombre":"Santa Fe"}},{"categoria":"Localidad simple","centroide":{"lat":-33.10661753914,"lon":-60.966501558848},"departamento":{"id":"82119","nombre":"San Lorenzo"},"id":"82119040000","localidad_censal":{"id":"82119040","nombre":"Coronel Arnold"},"municipio":{"id":"823988","nombre":"Coronel Arnold"},"nombre":"CORONEL ARNOLD","provincia":{"id":"82","nombre":"Santa Fe"}},{"categoria":"Localidad simple","centroide":{"lat":-33.317511585905,"lon":-60.603634787857},"departamento":{"id":"82084","nombre":"Rosario"},"id":"82084090000","localidad_censal":{"id":"82084090","nombre":"Coronel Bogado"},"municipio":{"id":"823393","nombre":"Coronel Bogado"},"nombre":"CORONEL BOGADO","provincia":{"id":"82","nombre":"Santa Fe"}},{"categoria":"Localidad simple","centroide":{"lat":-31.176158616875,"lon":-61.9194620018},"departamento":{"id":"82021","nombre":"Castellanos"},"id":"82021130000","localidad_censal":{"id":"82021130","nombre":"Coronel Fraga"},"municipio":{"id":"822203","nombre":"Coronel Fraga"},"nombre":"CORONEL FRAGA","provincia":{"id":"82","nombre":"Santa Fe"}},{"categoria":"Localidad simple","centroide":{"lat":-33.185476006102,"lon":-60.722863331377},"departamento":{"id":"82084","nombre":"Rosario"},"id":"82084100000","localidad_censal":{"id":"82084100","nombre":"Coronel Rodolfo S. Dom\u00ednguez"},"municipio":{"id":"823470","nombre":"Coronel Dom\u00ednguez"},"nombre":"CORONEL RODOLFO S. DOMINGUEZ","provincia":{"id":"82","nombre":"Santa Fe"}},{"categoria":"Localidad simple","centroide":{"lat":-32.849461080364,"lon":-61.254556908282},"departamento":{"id":"82056","nombre":"Iriondo"},"id":"82056070000","localidad_censal":{"id":"82056070","nombre":"Correa"},"municipio":{"id":"822903","nombre":"Correa"},"nombre":"CORREA","provincia":{"id":"82","nombre":"Santa Fe"}},{"categoria":"Localidad simple","centroide":{"lat":-31.741725213166,"lon":-62.037876536295},"departamento":{"id":"82126","nombre":"San Mart\u00edn"},"id":"82126060000","localidad_censal":{"id":"82126060","nombre":"Crispi"},"municipio":{"id":"824079","nombre":"Crispi"},"nombre":"CRISPI","provincia":{"id":"82","nombre":"Santa Fe"}},{"categoria":"Localidad simple","centroide":{"lat":-33.24662288896,"lon":-60.764974021995},"departamento":{"id":"82084","nombre":"Rosario"},"id":"82084110000","localidad_censal":{"id":"82084110","nombre":"Cuatro Esquinas"},"municipio":{"id":"823386","nombre":"Carmen del Sauce"},"nombre":"CUATRO ESQUINAS","provincia":{"id":"82","nombre":"Santa Fe"}},{"categoria":"Localidad simple","centroide":{"lat":-31.205311084633,"lon":-60.931400341592},"departamento":{"id":"82070","nombre":"Las Colonias"},"id":"82070020000","localidad_censal":{"id":"82070020","nombre":"Culul\u00fa"},"municipio":{"id":"823050","nombre":"Culul\u00fa"},"nombre":"CULULU","provincia":{"id":"82","nombre":"Santa Fe"}},{"categoria":"Localidad simple","centroide":{"lat":-30.397911889967,"lon":-61.651804421567},"departamento":{"id":"82091","nombre":"San Crist\u00f3bal"},"id":"82091110000","localidad_censal":{"id":"82091110","nombre":"Curupayt\u00ed"},"municipio":{"id":"823533","nombre":"Curupaity"},"nombre":"CURUPAYTI","provincia":{"id":"82","nombre":"Santa Fe"}},{"categoria":"Localidad simple","centroide":{"lat":-31.872739365609,"lon":-60.889699352149},"departamento":{"id":"82105","nombre":"San Jer\u00f3nimo"},"id":"82105100000","localidad_censal":{"id":"82105100","nombre":"Desv\u00edo Arij\u00f3n"},"municipio":{"id":"823764","nombre":"Desv\u00edo Arij\u00f3n"},"nombre":"DESVIO ARIJON","provincia":{"id":"82","nombre":"Santa Fe"}},{"categoria":"Localidad simple","centroide":{"lat":-32.375058824251,"lon":-61.091442512126},"departamento":{"id":"82105","nombre":"San Jer\u00f3nimo"},"id":"82105110000","localidad_censal":{"id":"82105110","nombre":"D\u00edaz"},"municipio":{"id":"823771","nombre":"D\u00edaz"},"nombre":"DIAZ","provincia":{"id":"82","nombre":"Santa Fe"}},{"categoria":"Localidad simple","centroide":{"lat":-34.374342923454,"lon":-62.128927362331},"departamento":{"id":"82042","nombre":"General L\u00f3pez"},"id":"82042100000","localidad_censal":{"id":"82042100","nombre":"Diego de Alvear"},"municipio":{"id":"822637","nombre":"Diego de Alvear"},"nombre":"DIEGO DE ALVEAR","provincia":{"id":"82","nombre":"Santa Fe"}},{"categoria":"Localidad simple","centroide":{"lat":-31.097624747292,"lon":-61.628312409605},"departamento":{"id":"82021","nombre":"Castellanos"},"id":"82021140000","localidad_censal":{"id":"82021140","nombre":"Egusquiza"},"municipio":{"id":"822210","nombre":"Egusquiza"},"nombre":"EGUSQUIZA","provincia":{"id":"82","nombre":"Santa Fe"}},{"categoria":"Localidad simple","centroide":{"lat":-29.133493678376,"lon":-59.947314591769},"departamento":{"id":"82049","nombre":"General Obligado"},"id":"82049040000","localidad_censal":{"id":"82049040","nombre":"El Araza"},"municipio":{"id":"822777","nombre":"El Araz\u00e1"},"nombre":"EL ARAZA","provincia":{"id":"82","nombre":"Santa Fe"}},{"categoria":"Componente de localidad compuesta","centroide":{"lat":-33.12887339754,"lon":-60.713039439353},"departamento":{"id":"82084","nombre":"Rosario"},"id":"82084120000","localidad_censal":{"id":"82084120","nombre":"El Caramelo"},"municipio":{"id":"823365","nombre":"\u00c1lvarez"},"nombre":"EL CARAMELO","provincia":{"id":"82","nombre":"Santa Fe"}},{"categoria":"Localidad simple","centroide":{"lat":-28.230208415738,"lon":-59.263984482111},"departamento":{"id":"82049","nombre":"General Obligado"},"id":"82049050000","localidad_censal":{"id":"82049050","nombre":"El Rab\u00f3n"},"municipio":{"id":"822784","nombre":"El Rab\u00f3n"},"nombre":"EL RABON","provincia":{"id":"82","nombre":"Santa Fe"}},{"categoria":"Localidad simple","centroide":{"lat":-32.203024245501,"lon":-61.702894491456},"departamento":{"id":"82126","nombre":"San Mart\u00edn"},"id":"82126070000","localidad_censal":{"id":"82126070","nombre":"El Tr\u00e9bol"},"municipio":{"id":"820308","nombre":"El Tr\u00e9bol"},"nombre":"EL TREBOL","provincia":{"id":"82","nombre":"Santa Fe"}},{"categoria":"Localidad simple","centroide":{"lat":-30.698079709454,"lon":-61.048759364642},"departamento":{"id":"82070","nombre":"Las Colonias"},"id":"82070030000","localidad_censal":{"id":"82070030","nombre":"Elisa"},"municipio":{"id":"823057","nombre":"Elisa"},"nombre":"ELISA","provincia":{"id":"82","nombre":"Santa Fe"}},{"categoria":"Localidad simple","centroide":{"lat":-33.701656016806,"lon":-61.616372705661},"departamento":{"id":"82042","nombre":"General L\u00f3pez"},"id":"82042110000","localidad_censal":{"id":"82042110","nombre":"Elortondo"},"municipio":{"id":"822644","nombre":"Elortondo"},"nombre":"ELORTONDO","provincia":{"id":"82","nombre":"Santa Fe"}},{"categoria":"Localidad simple","centroide":{"lat":-31.061095175041,"lon":-60.746437947776},"departamento":{"id":"82063","nombre":"La Capital"},"id":"82063070000","localidad_censal":{"id":"82063070","nombre":"Emilia"},"municipio":{"id":"822987","nombre":"Emilia"},"nombre":"EMILIA","provincia":{"id":"82","nombre":"Santa Fe"}},{"categoria":"Localidad simple","centroide":{"lat":-31.548778087167,"lon":-60.812722335558},"departamento":{"id":"82070","nombre":"Las Colonias"},"id":"82070040000","localidad_censal":{"id":"82070040","nombre":"Empalme San Carlos"},"municipio":{"id":"823064","nombre":"Empalme San Carlos"},"nombre":"EMPALME SAN CARLOS","provincia":{"id":"82","nombre":"Santa Fe"}},{"categoria":"Componente de localidad compuesta","centroide":{"lat":-33.262862547125,"lon":-60.380464463929},"departamento":{"id":"82028","nombre":"Villa Constituci\u00f3n"},"id":"82028070000","localidad_censal":{"id":"82028070","nombre":"Empalme Villa Constituci\u00f3n"},"municipio":{"id":"822441","nombre":"Empalme Villa Constituci\u00f3n"},"nombre":"EMPALME VILLA CONSTITUCION","provincia":{"id":"82","nombre":"Santa Fe"}},{"categoria":"Localidad simple","centroide":{"lat":-31.617858648232,"lon":-61.932925873319},"departamento":{"id":"82021","nombre":"Castellanos"},"id":"82021150000","localidad_censal":{"id":"82021150","nombre":"Esmeralda"},"municipio":{"id":"822217","nombre":"Esmeralda"},"nombre":"ESMERALDA","provincia":{"id":"82","nombre":"Santa Fe"}},{"categoria":"Localidad simple","centroide":{"lat":-31.450596614414,"lon":-60.931006811964},"departamento":{"id":"82070","nombre":"Las Colonias"},"id":"82070050000","localidad_censal":{"id":"82070050","nombre":"Esperanza"},"municipio":{"id":"820161","nombre":"Esperanza"},"nombre":"ESPERANZA","provincia":{"id":"82","nombre":"Santa Fe"}},{"categoria":"Localidad simple","centroide":{"lat":-31.52416914925,"lon":-61.720645713388},"departamento":{"id":"82021","nombre":"Castellanos"},"id":"82021160000","localidad_censal":{"id":"82021160","nombre":"Estaci\u00f3n Clucellas"},"municipio":{"id":"822224","nombre":"Estaci\u00f3n Clucellas"},"nombre":"ESTACION CLUCELLAS","provincia":{"id":"82","nombre":"Santa Fe"}},{"categoria":"Entidad","centroide":{"lat":-31.231918045324,"lon":-61.610107601216},"departamento":{"id":"82021","nombre":"Castellanos"},"id":"82021290001","localidad_censal":{"id":"82021290","nombre":"Presidente Roca"},"municipio":{"id":"822315","nombre":"Presidente Roca"},"nombre":"ESTACION PRESIDENTE ROCA","provincia":{"id":"82","nombre":"Santa Fe"}},{"categoria":"Localidad simple","centroide":{"lat":-31.317460382391,"lon":-61.69400346508},"departamento":{"id":"82021","nombre":"Castellanos"},"id":"82021170000","localidad_censal":{"id":"82021170","nombre":"Estaci\u00f3n Saguier"},"municipio":{"id":"822336","nombre":"Saguier"},"nombre":"ESTACION SAGUIER","provincia":{"id":"82","nombre":"Santa Fe"}},{"categoria":"Localidad simple","centroide":{"lat":-29.772671795772,"lon":-61.488151234681},"departamento":{"id":"82077","nombre":"9 de Julio"},"id":"82077010000","localidad_censal":{"id":"82077010","nombre":"Esteban Rams"},"municipio":{"id":"823281","nombre":"Esteban Rams"},"nombre":"ESTEBAN RAMS","provincia":{"id":"82","nombre":"Santa Fe"}},{"categoria":"Localidad simple","centroide":{"lat":-31.043486112833,"lon":-60.644866136978},"departamento":{"id":"82112","nombre":"San Justo"},"id":"82112040000","localidad_censal":{"id":"82112040","nombre":"Esther"},"municipio":{"id":"823883","nombre":"Esther"},"nombre":"ESTHER","provincia":{"id":"82","nombre":"Santa Fe"}},{"categoria":"Localidad simple","centroide":{"lat":-30.947613570269,"lon":-61.857773527214},"departamento":{"id":"82021","nombre":"Castellanos"},"id":"82021180000","localidad_censal":{"id":"82021180","nombre":"Eusebia y Carolina"},"municipio":{"id":"822231","nombre":"Eusebia y Carolina"},"nombre":"EUSEBIA Y CAROLINA","provincia":{"id":"82","nombre":"Santa Fe"}},{"categoria":"Localidad simple","centroide":{"lat":-31.577744851416,"lon":-61.783666182572},"departamento":{"id":"82021","nombre":"Castellanos"},"id":"82021190000","localidad_censal":{"id":"82021190","nombre":"Eustolia"},"municipio":{"id":"822238","nombre":"Eustolia"},"nombre":"EUSTOLIA","provincia":{"id":"82","nombre":"Santa Fe"}},{"categoria":"Localidad simple","centroide":{"lat":-31.246393987915,"lon":-61.212881667398},"departamento":{"id":"82070","nombre":"Las Colonias"},"id":"82070060000","localidad_censal":{"id":"82070060","nombre":"Felicia"},"municipio":{"id":"823071","nombre":"Felicia"},"nombre":"FELICIA","provincia":{"id":"82","nombre":"Santa Fe"}},{"categoria":"Localidad simple","centroide":{"lat":-33.195018779442,"lon":-60.470603846352},"departamento":{"id":"82084","nombre":"Rosario"},"id":"82084130000","localidad_censal":{"id":"82084130","nombre":"Fighiera"},"municipio":{"id":"823400","nombre":"Fighiera"},"nombre":"FIGHIERA","provincia":{"id":"82","nombre":"Santa Fe"}},{"categoria":"Componente de localidad compuesta","centroide":{"lat":-33.441023527734,"lon":-61.473143421839},"departamento":{"id":"82028","nombre":"Villa Constituci\u00f3n"},"id":"82028080000","localidad_censal":{"id":"82028080","nombre":"Firmat"},"municipio":{"id":"820063","nombre":"Firmat"},"nombre":"FIRMAT","provincia":{"id":"82","nombre":"Santa Fe"}},{"categoria":"Componente de localidad compuesta","centroide":{"lat":-33.458049683322,"lon":-61.491452508941},"departamento":{"id":"82042","nombre":"General L\u00f3pez"},"id":"82042120000","localidad_censal":{"id":"82042120","nombre":"Firmat"},"municipio":{"id":"820063","nombre":"Firmat"},"nombre":"FIRMAT","provincia":{"id":"82","nombre":"Santa Fe"}},{"categoria":"Localidad simple","centroide":{"lat":-28.042735994732,"lon":-59.218746907008},"departamento":{"id":"82049","nombre":"General Obligado"},"id":"82049060000","localidad_censal":{"id":"82049060","nombre":"Florencia"},"municipio":{"id":"822798","nombre":"Florencia"},"nombre":"FLORENCIA","provincia":{"id":"82","nombre":"Santa Fe"}},{"categoria":"Localidad simple","centroide":{"lat":-29.056021184539,"lon":-60.414394585165},"departamento":{"id":"82133","nombre":"Vera"},"id":"82133040000","localidad_censal":{"id":"82133040","nombre":"Fort\u00edn Olmos"},"municipio":{"id":"824149","nombre":"Fort\u00edn Olmos"},"nombre":"FORTIN OLMOS","provincia":{"id":"82","nombre":"Santa Fe"}},{"categoria":"Localidad simple","centroide":{"lat":-31.58887361745,"lon":-60.938894583032},"departamento":{"id":"82070","nombre":"Las Colonias"},"id":"82070070000","localidad_censal":{"id":"82070070","nombre":"Franck"},"municipio":{"id":"823078","nombre":"Franck"},"nombre":"FRANCK","provincia":{"id":"82","nombre":"Santa Fe"}},{"categoria":"Componente de localidad compuesta","centroide":{"lat":-32.785558188034,"lon":-60.7291236444},"departamento":{"id":"82119","nombre":"San Lorenzo"},"id":"82119050000","localidad_censal":{"id":"82119050","nombre":"Fray Luis Beltr\u00e1n"},"municipio":{"id":"820280","nombre":"Fray Luis Beltr\u00e1n"},"nombre":"FRAY LUIS BELTRAN","provincia":{"id":"82","nombre":"Santa Fe"}},{"categoria":"Componente de localidad compuesta","centroide":{"lat":-31.431399084977,"lon":-62.063491738784},"departamento":{"id":"82021","nombre":"Castellanos"},"id":"82021200000","localidad_censal":{"id":"82021200","nombre":"Frontera"},"municipio":{"id":"820035","nombre":"Frontera"},"nombre":"FRONTERA","provincia":{"id":"82","nombre":"Santa Fe"}},{"categoria":"Localidad simple","centroide":{"lat":-33.174441649787,"lon":-61.075053697609},"departamento":{"id":"82119","nombre":"San Lorenzo"},"id":"82119060000","localidad_censal":{"id":"82119060","nombre":"Fuentes"},"municipio":{"id":"823995","nombre":"Fuentes"},"nombre":"FUENTES","provincia":{"id":"82","nombre":"Santa Fe"}},{"categoria":"Componente de localidad compuesta","centroide":{"lat":-32.922782783063,"lon":-60.812180282596},"departamento":{"id":"82084","nombre":"Rosario"},"id":"82084140000","localidad_censal":{"id":"82084140","nombre":"Funes"},"municipio":{"id":"820189","nombre":"Funes"},"nombre":"FUNES","provincia":{"id":"82","nombre":"Santa Fe"}},{"categoria":"Localidad simple","centroide":{"lat":-32.434376081882,"lon":-60.818539094172},"departamento":{"id":"82105","nombre":"San Jer\u00f3nimo"},"id":"82105120000","localidad_censal":{"id":"82105120","nombre":"Gaboto"},"municipio":{"id":"823778","nombre":"Gaboto"},"nombre":"GABOTO","provincia":{"id":"82","nombre":"Santa Fe"}},{"categoria":"Localidad simple","centroide":{"lat":-32.032645592032,"lon":-61.219961027425},"departamento":{"id":"82105","nombre":"San Jer\u00f3nimo"},"id":"82105130000","localidad_censal":{"id":"82105130","nombre":"G\u00e1lvez"},"municipio":{"id":"820252","nombre":"G\u00e1lvez"},"nombre":"GALVEZ","provincia":{"id":"82","nombre":"Santa Fe"}},{"categoria":"Localidad simple","centroide":{"lat":-28.955344740724,"lon":-60.138438433241},"departamento":{"id":"82133","nombre":"Vera"},"id":"82133050000","localidad_censal":{"id":"82133050","nombre":"Garabato"},"municipio":{"id":"824156","nombre":"Garabato"},"nombre":"GARABATO","provincia":{"id":"82","nombre":"Santa Fe"}},{"categoria":"Localidad simple","centroide":{"lat":-31.652027726261,"lon":-61.805390751143},"departamento":{"id":"82021","nombre":"Castellanos"},"id":"82021210000","localidad_censal":{"id":"82021210","nombre":"Garibaldi"},"municipio":{"id":"822259","nombre":"Garibaldi"},"nombre":"GARIBALDI","provincia":{"id":"82","nombre":"Santa Fe"}},{"categoria":"Localidad simple","centroide":{"lat":-28.024578509589,"lon":-61.187937329787},"departamento":{"id":"82077","nombre":"9 de Julio"},"id":"82077020000","localidad_censal":{"id":"82077020","nombre":"Gato Colorado"},"municipio":{"id":"823288","nombre":"Gato Colorado"},"nombre":"GATO COLORADO","provincia":{"id":"82","nombre":"Santa Fe"}},{"categoria":"Localidad simple","centroide":{"lat":-33.601843491116,"lon":-60.598938352242},"departamento":{"id":"82028","nombre":"Villa Constituci\u00f3n"},"id":"82028090000","localidad_censal":{"id":"82028090","nombre":"General Gelly"},"municipio":{"id":"822448","nombre":"General Gelly"},"nombre":"GENERAL GELLY","provincia":{"id":"82","nombre":"Santa Fe"}},{"categoria":"Localidad simple","centroide":{"lat":-33.112158888435,"lon":-60.566573783706},"departamento":{"id":"82084","nombre":"Rosario"},"id":"82084150000","localidad_censal":{"id":"82084150","nombre":"General Lagos"},"municipio":{"id":"823407","nombre":"General Lagos"},"nombre":"GENERAL LAGOS","provincia":{"id":"82","nombre":"Santa Fe"}},{"categoria":"Localidad simple","centroide":{"lat":-31.877044953176,"lon":-61.128836765398},"departamento":{"id":"82105","nombre":"San Jer\u00f3nimo"},"id":"82105140000","localidad_censal":{"id":"82105140","nombre":"Gessler"},"municipio":{"id":"823785","nombre":"Gessler"},"nombre":"GESSLER","provincia":{"id":"82","nombre":"Santa Fe"}},{"categoria":"Localidad simple","centroide":{"lat":-30.364834689493,"lon":-60.401168404831},"departamento":{"id":"82112","nombre":"San Justo"},"id":"82112050000","localidad_censal":{"id":"82112050","nombre":"Gobernador Crespo"},"municipio":{"id":"823890","nombre":"Gobernador Crespo"},"nombre":"GOBERNADOR CRESPO","provincia":{"id":"82","nombre":"Santa Fe"}},{"categoria":"Localidad simple","centroide":{"lat":-33.402405547162,"lon":-61.844930672707},"departamento":{"id":"82014","nombre":"Caseros"},"id":"82014080000","localidad_censal":{"id":"82014080","nombre":"G\u00f6deken"},"municipio":{"id":"822070","nombre":"G\u00f6deken"},"nombre":"GODEKEN","provincia":{"id":"82","nombre":"Santa Fe"}},{"categoria":"Localidad simple","centroide":{"lat":-33.369709873179,"lon":-60.509413021538},"departamento":{"id":"82028","nombre":"Villa Constituci\u00f3n"},"id":"82028100000","localidad_censal":{"id":"82028100","nombre":"Godoy"},"municipio":{"id":"822455","nombre":"Godoy"},"nombre":"GODOY","provincia":{"id":"82","nombre":"Santa Fe"}},{"categoria":"Localidad simple","centroide":{"lat":-28.558870958547,"lon":-60.025191931947},"departamento":{"id":"82133","nombre":"Vera"},"id":"82133060000","localidad_censal":{"id":"82133060","nombre":"Golondrina"},"municipio":{"id":"824163","nombre":"Golondrina"},"nombre":"GOLONDRINA","provincia":{"id":"82","nombre":"Santa Fe"}},{"categoria":"Componente de localidad compuesta","centroide":{"lat":-32.861364165678,"lon":-60.706215977083},"departamento":{"id":"82084","nombre":"Rosario"},"id":"82084160000","localidad_censal":{"id":"82084160","nombre":"Granadero Baigorria"},"municipio":{"id":"820196","nombre":"Granadero Baigorria"},"nombre":"GRANADERO BAIGORRIA","provincia":{"id":"82","nombre":"Santa Fe"}},{"categoria":"Localidad simple","centroide":{"lat":-28.229623060726,"lon":-61.529752993052},"departamento":{"id":"82077","nombre":"9 de Julio"},"id":"82077030000","localidad_censal":{"id":"82077030","nombre":"Gregoria P\u00e9rez de Denis"},"municipio":{"id":"823295","nombre":"Gregoria P\u00e9rez de Denis"},"nombre":"GREGORIA PEREZ DE DENIS","provincia":{"id":"82","nombre":"Santa Fe"}},{"categoria":"Localidad simple","centroide":{"lat":-31.27050268996,"lon":-61.072754269582},"departamento":{"id":"82070","nombre":"Las Colonias"},"id":"82070080000","localidad_censal":{"id":"82070080","nombre":"Grutly"},"municipio":{"id":"823085","nombre":"Grutly"},"nombre":"GRUTLY","provincia":{"id":"82","nombre":"Santa Fe"}},{"categoria":"Localidad simple","centroide":{"lat":-28.94530220445,"lon":-59.563415192924},"departamento":{"id":"82049","nombre":"General Obligado"},"id":"82049070000","localidad_censal":{"id":"82049070","nombre":"Guadalupe Norte"},"municipio":{"id":"822805","nombre":"Guadalupe Norte"},"nombre":"GUADALUPE NORTE","provincia":{"id":"82","nombre":"Santa Fe"}},{"categoria":"Localidad simple","centroide":{"lat":-31.099270678118,"lon":-60.088151287248},"departamento":{"id":"82035","nombre":"Garay"},"id":"82035020000","localidad_censal":{"id":"82035020","nombre":"Helvecia"},"municipio":{"id":"822553","nombre":"Helvecia"},"nombre":"HELVECIA","provincia":{"id":"82","nombre":"Santa Fe"}},{"categoria":"Localidad simple","centroide":{"lat":-30.005676536685,"lon":-61.839646767682},"departamento":{"id":"82091","nombre":"San Crist\u00f3bal"},"id":"82091120000","localidad_censal":{"id":"82091120","nombre":"Hersilia"},"municipio":{"id":"823547","nombre":"Hersilia"},"nombre":"HERSILIA","provincia":{"id":"82","nombre":"Santa Fe"}},{"categoria":"Localidad simple","centroide":{"lat":-31.128251872521,"lon":-61.032767675425},"departamento":{"id":"82070","nombre":"Las Colonias"},"id":"82070090000","localidad_censal":{"id":"82070090","nombre":"Hipat\u00eda"},"municipio":{"id":"823092","nombre":"Hipat\u00eda"},"nombre":"HIPATIA","provincia":{"id":"82","nombre":"Santa Fe"}},{"categoria":"Localidad simple","centroide":{"lat":-30.0136747534,"lon":-61.219294764691},"departamento":{"id":"82091","nombre":"San Crist\u00f3bal"},"id":"82091130000","localidad_censal":{"id":"82091130","nombre":"Huanqueros"},"municipio":{"id":"823554","nombre":"Huanqueros"},"nombre":"HUANQUEROS","provincia":{"id":"82","nombre":"Santa Fe"}},{"categoria":"Localidad simple","centroide":{"lat":-33.802855665332,"lon":-61.335803322262},"departamento":{"id":"82042","nombre":"General L\u00f3pez"},"id":"82042130000","localidad_censal":{"id":"82042130","nombre":"Hughes"},"municipio":{"id":"822651","nombre":"Hughes"},"nombre":"HUGHES","provincia":{"id":"82","nombre":"Santa Fe"}},{"categoria":"Localidad simple","centroide":{"lat":-30.870208852493,"lon":-61.348590239071},"departamento":{"id":"82021","nombre":"Castellanos"},"id":"82021220000","localidad_censal":{"id":"82021220","nombre":"Humberto Primo"},"municipio":{"id":"822273","nombre":"Humberto Primo"},"nombre":"HUMBERTO PRIMO","provincia":{"id":"82","nombre":"Santa Fe"}},{"categoria":"Localidad simple","centroide":{"lat":-31.400921064504,"lon":-61.08255156599},"departamento":{"id":"82070","nombre":"Las Colonias"},"id":"82070100000","localidad_censal":{"id":"82070100","nombre":"Humboldt"},"municipio":{"id":"823099","nombre":"Humboldt"},"nombre":"HUMBOLDT","provincia":{"id":"82","nombre":"Santa Fe"}},{"categoria":"Localidad simple","centroide":{"lat":-32.85125613044,"lon":-60.788493664608},"departamento":{"id":"82084","nombre":"Rosario"},"id":"82084170000","localidad_censal":{"id":"82084170","nombre":"Ibarlucea"},"municipio":{"id":"823414","nombre":"Ibarlucea"},"nombre":"IBARLUCEA","provincia":{"id":"82","nombre":"Santa Fe"}},{"categoria":"Localidad simple","centroide":{"lat":-28.759813885955,"lon":-59.577232498585},"departamento":{"id":"82049","nombre":"General Obligado"},"id":"82049080000","localidad_censal":{"id":"82049080","nombre":"Ingeniero Chanourdie"},"municipio":{"id":"822812","nombre":"Ingeniero Chanourdie"},"nombre":"INGENIERO CHANOURDIE","provincia":{"id":"82","nombre":"Santa Fe"}},{"categoria":"Localidad simple","centroide":{"lat":-28.677925366856,"lon":-60.072468433393},"departamento":{"id":"82133","nombre":"Vera"},"id":"82133070000","localidad_censal":{"id":"82133070","nombre":"Intiyaco"},"municipio":{"id":"824170","nombre":"Intiyaco"},"nombre":"INTIYACO","provincia":{"id":"82","nombre":"Santa Fe"}},{"categoria":"Localidad simple","centroide":{"lat":-32.16077341012,"lon":-61.110425842864},"departamento":{"id":"82105","nombre":"San Jer\u00f3nimo"},"id":"82105150000","localidad_censal":{"id":"82105150","nombre":"Irigoyen"},"municipio":{"id":"823792","nombre":"Pueblo Irigoyen"},"nombre":"IRIGOYEN","provincia":{"id":"82","nombre":"Santa Fe"}},{"categoria":"Localidad simple","centroide":{"lat":-30.737034051656,"lon":-60.975951125318},"departamento":{"id":"82070","nombre":"Las Colonias"},"id":"82070110000","localidad_censal":{"id":"82070110","nombre":"Jacinto L. Ar\u00e1uz"},"municipio":{"id":"823113","nombre":"Jacinto L. Arauz"},"nombre":"JACINTO L. ARAUZ","provincia":{"id":"82","nombre":"Santa Fe"}},{"categoria":"Localidad simple","centroide":{"lat":-31.407969136931,"lon":-61.99218472394},"departamento":{"id":"82021","nombre":"Castellanos"},"id":"82021230000","localidad_censal":{"id":"82021230","nombre":"Josefina"},"municipio":{"id":"822280","nombre":"Josefina"},"nombre":"JOSEFINA","provincia":{"id":"82","nombre":"Santa Fe"}},{"categoria":"Localidad simple","centroide":{"lat":-33.496020689866,"lon":-60.512213329595},"departamento":{"id":"82028","nombre":"Villa Constituci\u00f3n"},"id":"82028110000","localidad_censal":{"id":"82028110","nombre":"Juan B. Molina"},"municipio":{"id":"822462","nombre":"Juan Bernab\u00e9 Molina"},"nombre":"JUAN B. MOLINA","provincia":{"id":"82","nombre":"Santa Fe"}},{"categoria":"Localidad simple","centroide":{"lat":-33.71761494002,"lon":-61.050017921571},"departamento":{"id":"82028","nombre":"Villa Constituci\u00f3n"},"id":"82028120000","localidad_censal":{"id":"82028120","nombre":"Juncal"},"municipio":{"id":"822469","nombre":"Juncal"},"nombre":"JUNCAL","provincia":{"id":"82","nombre":"Santa Fe"}},{"categoria":"Localidad simple","centroide":{"lat":-33.060584803082,"lon":-60.685644011833},"departamento":{"id":"82084","nombre":"Rosario"},"id":"82084180000","localidad_censal":{"id":"82084180","nombre":"Kil\u00f3metro 101"},"municipio":{"id":"823372","nombre":"Alvear"},"nombre":"KILOMETRO 101","provincia":{"id":"82","nombre":"Santa Fe"}},{"categoria":"Localidad simple","centroide":{"lat":-28.824751090766,"lon":-60.22560364465},"departamento":{"id":"82133","nombre":"Vera"},"id":"82133080000","localidad_censal":{"id":"82133080","nombre":"Kil\u00f3metro 115"},"municipio":{"id":"824156","nombre":"Garabato"},"nombre":"KILOMETRO 115","provincia":{"id":"82","nombre":"Santa Fe"}},{"categoria":"Localidad simple","centroide":{"lat":-30.447782510545,"lon":-60.14093568826},"departamento":{"id":"82098","nombre":"San Javier"},"id":"82098040000","localidad_censal":{"id":"82098040","nombre":"La Brava"},"municipio":{"id":"823708","nombre":"La Brava"},"nombre":"LA BRAVA","provincia":{"id":"82","nombre":"Santa Fe"}},{"categoria":"Localidad simple","centroide":{"lat":-30.087643800714,"lon":-61.179707055057},"departamento":{"id":"82091","nombre":"San Crist\u00f3bal"},"id":"82091140000","localidad_censal":{"id":"82091140","nombre":"La Cabral"},"municipio":{"id":"823561","nombre":"La Cabral"},"nombre":"LA CABRAL","provincia":{"id":"82","nombre":"Santa Fe"}},{"categoria":"Localidad simple","centroide":{"lat":-33.544670400832,"lon":-61.973632428331},"departamento":{"id":"82042","nombre":"General L\u00f3pez"},"id":"82042140000","localidad_censal":{"id":"82042140","nombre":"La Chispa"},"municipio":{"id":"822658","nombre":"La Chispa"},"nombre":"LA CHISPA","provincia":{"id":"82","nombre":"Santa Fe"}},{"categoria":"Localidad simple","centroide":{"lat":-30.22615795235,"lon":-60.366496822582},"departamento":{"id":"82112","nombre":"San Justo"},"id":"82112060000","localidad_censal":{"id":"82112060","nombre":"La Criolla"},"municipio":{"id":"823904","nombre":"La Criolla"},"nombre":"LA CRIOLLA","provincia":{"id":"82","nombre":"Santa Fe"}},{"categoria":"Localidad simple","centroide":{"lat":-29.585488998281,"lon":-60.379939372976},"departamento":{"id":"82133","nombre":"Vera"},"id":"82133090000","localidad_censal":{"id":"82133090","nombre":"La Gallareta"},"municipio":{"id":"824177","nombre":"La Gallareta"},"nombre":"LA GALLARETA","provincia":{"id":"82","nombre":"Santa Fe"}},{"categoria":"Localidad simple","centroide":{"lat":-28.493935731005,"lon":-59.295074566752},"departamento":{"id":"82049","nombre":"General Obligado"},"id":"82049090000","localidad_censal":{"id":"82049090","nombre":"La Isleta"},"municipio":{"id":null,"nombre":null},"nombre":"LA ISLETA","provincia":{"id":"82","nombre":"Santa Fe"}},{"categoria":"Localidad simple","centroide":{"lat":-30.419663533439,"lon":-61.00330731349},"departamento":{"id":"82091","nombre":"San Crist\u00f3bal"},"id":"82091145000","localidad_censal":{"id":"82091145","nombre":"La Lucila"},"municipio":{"id":"823575","nombre":"La Lucila"},"nombre":"LA LUCILA","provincia":{"id":"82","nombre":"Santa Fe"}},{"categoria":"Localidad simple","centroide":{"lat":-30.867947769334,"lon":-60.971811680715},"departamento":{"id":"82070","nombre":"Las Colonias"},"id":"82070120000","localidad_censal":{"id":"82070120","nombre":"La Pelada"},"municipio":{"id":"823120","nombre":"La Pelada"},"nombre":"LA PELADA","provincia":{"id":"82","nombre":"Santa Fe"}},{"categoria":"Localidad simple","centroide":{"lat":-30.348496442471,"lon":-60.521785339314},"departamento":{"id":"82112","nombre":"San Justo"},"id":"82112070000","localidad_censal":{"id":"82112070","nombre":"La Penca y Caraguat\u00e1"},"municipio":{"id":"823911","nombre":"La Penca y Caraguat\u00e1"},"nombre":"LA PENCA Y CARAGUATA","provincia":{"id":"82","nombre":"Santa Fe"}},{"categoria":"Localidad simple","centroide":{"lat":-30.111396672802,"lon":-61.792760854514},"departamento":{"id":"82091","nombre":"San Crist\u00f3bal"},"id":"82091150000","localidad_censal":{"id":"82091150","nombre":"La Rubia"},"municipio":{"id":"823582","nombre":"La Rubia"},"nombre":"LA RUBIA","provincia":{"id":"82","nombre":"Santa Fe"}},{"categoria":"Localidad simple","centroide":{"lat":-28.972852591324,"lon":-59.848499181825},"departamento":{"id":"82049","nombre":"General Obligado"},"id":"82049100000","localidad_censal":{"id":"82049100","nombre":"La Sarita"},"municipio":{"id":"822819","nombre":"La Sarita"},"nombre":"LA SARITA","provincia":{"id":"82","nombre":"Santa Fe"}},{"categoria":"Localidad simple","centroide":{"lat":-33.359625797097,"lon":-60.658456866442},"departamento":{"id":"82028","nombre":"Villa Constituci\u00f3n"},"id":"82028130000","localidad_censal":{"id":"82028130","nombre":"La Vanguardia"},"municipio":{"id":"822476","nombre":"La Vanguardia"},"nombre":"LA VANGUARDIA","provincia":{"id":"82","nombre":"Santa Fe"}},{"categoria":"Localidad simple","centroide":{"lat":-33.719652745371,"lon":-61.314920816803},"departamento":{"id":"82042","nombre":"General L\u00f3pez"},"id":"82042150000","localidad_censal":{"id":"82042150","nombre":"Labordeboy"},"municipio":{"id":"822665","nombre":"Labordeboy"},"nombre":"LABORDEBOY","provincia":{"id":"82","nombre":"Santa Fe"}},{"categoria":"Localidad simple","centroide":{"lat":-31.309261926638,"lon":-60.660781608593},"departamento":{"id":"82063","nombre":"La Capital"},"id":"82063080000","localidad_censal":{"id":"82063080","nombre":"Laguna Paiva"},"municipio":{"id":"820140","nombre":"Laguna Paiva"},"nombre":"LAGUNA PAIVA","provincia":{"id":"82","nombre":"Santa Fe"}},{"categoria":"Localidad simple","centroide":{"lat":-32.013814700594,"lon":-62.061177130199},"departamento":{"id":"82126","nombre":"San Mart\u00edn"},"id":"82126080000","localidad_censal":{"id":"82126080","nombre":"Landeta"},"municipio":{"id":"824086","nombre":"Landeta"},"nombre":"LANDETA","provincia":{"id":"82","nombre":"Santa Fe"}},{"categoria":"Localidad simple","centroide":{"lat":-28.842970621145,"lon":-59.637928771814},"departamento":{"id":"82049","nombre":"General Obligado"},"id":"82049110000","localidad_censal":{"id":"82049110","nombre":"Lanteri"},"municipio":{"id":"822826","nombre":"Lanteri"},"nombre":"LANTERI","provincia":{"id":"82","nombre":"Santa Fe"}},{"categoria":"Localidad simple","centroide":{"lat":-32.553981053571,"lon":-61.219799542899},"departamento":{"id":"82056","nombre":"Iriondo"},"id":"82056080000","localidad_censal":{"id":"82056080","nombre":"Largu\u00eda"},"municipio":{"id":"820133","nombre":"Totoras"},"nombre":"LARGUIA","provincia":{"id":"82","nombre":"Santa Fe"}},{"categoria":"Localidad simple","centroide":{"lat":-31.936130527557,"lon":-61.047716686041},"departamento":{"id":"82105","nombre":"San Jer\u00f3nimo"},"id":"82105160000","localidad_censal":{"id":"82105160","nombre":"Larrechea"},"municipio":{"id":"823799","nombre":"Larrechea"},"nombre":"LARRECHEA","provincia":{"id":"82","nombre":"Santa Fe"}},{"categoria":"Localidad simple","centroide":{"lat":-29.895312795572,"lon":-61.291199245377},"departamento":{"id":"82091","nombre":"San Crist\u00f3bal"},"id":"82091160000","localidad_censal":{"id":"82091160","nombre":"Las Avispas"},"municipio":{"id":"823589","nombre":"Las Avispas"},"nombre":"LAS AVISPAS","provincia":{"id":"82","nombre":"Santa Fe"}},{"categoria":"Localidad simple","centroide":{"lat":-32.199189964656,"lon":-61.492794044951},"departamento":{"id":"82126","nombre":"San Mart\u00edn"},"id":"82126090000","localidad_censal":{"id":"82126090","nombre":"Las Bandurrias"},"municipio":{"id":"824093","nombre":"Las Bandurrias"},"nombre":"LAS BANDURRIAS","provincia":{"id":"82","nombre":"Santa Fe"}},{"categoria":"Localidad simple","centroide":{"lat":-28.849010182463,"lon":-59.50057810213},"departamento":{"id":"82049","nombre":"General Obligado"},"id":"82049120000","localidad_censal":{"id":"82049120","nombre":"Las Garzas"},"municipio":{"id":"822833","nombre":"Las Garzas"},"nombre":"LAS GARZAS","provincia":{"id":"82","nombre":"Santa Fe"}},{"categoria":"Localidad simple","centroide":{"lat":-30.632634582898,"lon":-61.627723388656},"departamento":{"id":"82091","nombre":"San Crist\u00f3bal"},"id":"82091170000","localidad_censal":{"id":"82091170","nombre":"Las Palmeras"},"municipio":{"id":"823596","nombre":"Las Palmeras"},"nombre":"LAS PALMERAS","provincia":{"id":"82","nombre":"Santa Fe"}},{"categoria":"Localidad simple","centroide":{"lat":-32.682684255005,"lon":-61.518579834788},"departamento":{"id":"82007","nombre":"Belgrano"},"id":"82007030000","localidad_censal":{"id":"82007030","nombre":"Las Parejas"},"municipio":{"id":"820014","nombre":"Las Parejas"},"nombre":"LAS PAREJAS","provincia":{"id":"82","nombre":"Santa Fe"}},{"categoria":"Localidad simple","centroide":{"lat":-31.82472781111,"lon":-62.108990789835},"departamento":{"id":"82126","nombre":"San Mart\u00edn"},"id":"82126100000","localidad_censal":{"id":"82126100","nombre":"Las Petacas"},"municipio":{"id":"824100","nombre":"Las Petacas"},"nombre":"LAS PETACAS","provincia":{"id":"82","nombre":"Santa Fe"}},{"categoria":"Localidad simple","centroide":{"lat":-32.478576817605,"lon":-61.574803682253},"departamento":{"id":"82007","nombre":"Belgrano"},"id":"82007040000","localidad_censal":{"id":"82007040","nombre":"Las Rosas"},"municipio":{"id":"820021","nombre":"Las Rosas"},"nombre":"LAS ROSAS","provincia":{"id":"82","nombre":"Santa Fe"}},{"categoria":"Localidad simple","centroide":{"lat":-28.35407492996,"lon":-59.259552100038},"departamento":{"id":"82049","nombre":"General Obligado"},"id":"82049130000","localidad_censal":{"id":"82049130","nombre":"Las Toscas"},"municipio":{"id":"820098","nombre":"Las Toscas"},"nombre":"LAS TOSCAS","provincia":{"id":"82","nombre":"Santa Fe"}},{"categoria":"Localidad simple","centroide":{"lat":-31.57223706388,"lon":-60.995928799277},"departamento":{"id":"82070","nombre":"Las Colonias"},"id":"82070130000","localidad_censal":{"id":"82070130","nombre":"Las Tunas"},"municipio":{"id":"823127","nombre":"Las Tunas"},"nombre":"LAS TUNAS","provincia":{"id":"82","nombre":"Santa Fe"}},{"categoria":"Localidad simple","centroide":{"lat":-34.166329566338,"lon":-62.428038027595},"departamento":{"id":"82042","nombre":"General L\u00f3pez"},"id":"82042160000","localidad_censal":{"id":"82042160","nombre":"Lazzarino"},"municipio":{"id":"822672","nombre":"Lazzarino"},"nombre":"LAZZARINO","provincia":{"id":"82","nombre":"Santa Fe"}},{"categoria":"Localidad simple","centroide":{"lat":-31.127247102999,"lon":-61.452956912051},"departamento":{"id":"82021","nombre":"Castellanos"},"id":"82021240000","localidad_censal":{"id":"82021240","nombre":"Lehmann"},"municipio":{"id":"822287","nombre":"Lehmann"},"nombre":"LEHMANN","provincia":{"id":"82","nombre":"Santa Fe"}},{"categoria":"Localidad simple","centroide":{"lat":-31.18625740389,"lon":-60.748478593975},"departamento":{"id":"82063","nombre":"La Capital"},"id":"82063090000","localidad_censal":{"id":"82063090","nombre":"Llambi Campbell"},"municipio":{"id":"822994","nombre":"Llambi Campbell"},"nombre":"LLAMBI CAMPBELL","provincia":{"id":"82","nombre":"Santa Fe"}},{"categoria":"Localidad simple","centroide":{"lat":-29.504281279787,"lon":-61.696732780284},"departamento":{"id":"82077","nombre":"9 de Julio"},"id":"82077040000","localidad_censal":{"id":"82077040","nombre":"Logro\u00f1o"},"municipio":{"id":"823309","nombre":"Logro\u00f1o"},"nombre":"LOGRO\u00d1O","provincia":{"id":"82","nombre":"Santa Fe"}},{"categoria":"Localidad simple","centroide":{"lat":-31.961443189062,"lon":-61.178380045656},"departamento":{"id":"82105","nombre":"San Jer\u00f3nimo"},"id":"82105170000","localidad_censal":{"id":"82105170","nombre":"Loma Alta"},"municipio":{"id":"823806","nombre":"Loma Alta"},"nombre":"LOMA ALTA","provincia":{"id":"82","nombre":"Santa Fe"}},{"categoria":"Localidad simple","centroide":{"lat":-31.906966893075,"lon":-61.279929537744},"departamento":{"id":"82105","nombre":"San Jer\u00f3nimo"},"id":"82105180000","localidad_censal":{"id":"82105180","nombre":"L\u00f3pez"},"municipio":{"id":"823813","nombre":"L\u00f3pez"},"nombre":"LOPEZ","provincia":{"id":"82","nombre":"Santa Fe"}},{"categoria":"Localidad simple","centroide":{"lat":-28.106372168045,"lon":-59.978664832677},"departamento":{"id":"82133","nombre":"Vera"},"id":"82133100000","localidad_censal":{"id":"82133100","nombre":"Los Amores"},"municipio":{"id":"824184","nombre":"Los Amores"},"nombre":"LOS AMORES","provincia":{"id":"82","nombre":"Santa Fe"}},{"categoria":"Localidad simple","centroide":{"lat":-32.324303113599,"lon":-61.632111121883},"departamento":{"id":"82126","nombre":"San Mart\u00edn"},"id":"82126110000","localidad_censal":{"id":"82126110","nombre":"Los Cardos"},"municipio":{"id":"824107","nombre":"Los Cardos"},"nombre":"LOS CARDOS","provincia":{"id":"82","nombre":"Santa Fe"}},{"categoria":"Localidad simple","centroide":{"lat":-29.370121102781,"lon":-59.737867777076},"departamento":{"id":"82049","nombre":"General Obligado"},"id":"82049140000","localidad_censal":{"id":"82049140","nombre":"Los Laureles"},"municipio":{"id":"822840","nombre":"Los Laureles"},"nombre":"LOS LAURELES","provincia":{"id":"82","nombre":"Santa Fe"}},{"categoria":"Localidad simple","centroide":{"lat":-33.105489995492,"lon":-61.326501532929},"departamento":{"id":"82014","nombre":"Caseros"},"id":"82014090000","localidad_censal":{"id":"82014090","nombre":"Los Molinos"},"municipio":{"id":"822077","nombre":"Los Molinos"},"nombre":"LOS MOLINOS","provincia":{"id":"82","nombre":"Santa Fe"}},{"categoria":"Localidad simple","centroide":{"lat":-33.09157341041,"lon":-60.735425426106},"departamento":{"id":"82084","nombre":"Rosario"},"id":"82084190000","localidad_censal":{"id":"82084190","nombre":"Los Muchachos - La Alborada"},"municipio":{"id":"823421","nombre":"Pi\u00f1ero"},"nombre":"LOS MUCHACHOS - LA ALBORADA","provincia":{"id":"82","nombre":"Santa Fe"}},{"categoria":"Localidad simple","centroide":{"lat":-33.14300619716,"lon":-61.606612866978},"departamento":{"id":"82014","nombre":"Caseros"},"id":"82014100000","localidad_censal":{"id":"82014100","nombre":"Los Nogales"},"municipio":{"id":"822091","nombre":"San Jos\u00e9 de la Esquina"},"nombre":"LOS NOGALES","provincia":{"id":"82","nombre":"Santa Fe"}},{"categoria":"Localidad simple","centroide":{"lat":-33.376991827612,"lon":-61.712194306488},"departamento":{"id":"82014","nombre":"Caseros"},"id":"82014110000","localidad_censal":{"id":"82014110","nombre":"Los Quirquinchos"},"municipio":{"id":"822084","nombre":"Los Quirquinchos"},"nombre":"LOS QUIRQUINCHOS","provincia":{"id":"82","nombre":"Santa Fe"}},{"categoria":"Localidad simple","centroide":{"lat":-31.495636553142,"lon":-60.428646771475},"departamento":{"id":"82035","nombre":"Garay"},"id":"82035030000","localidad_censal":{"id":"82035030","nombre":"Los Zapallos"},"municipio":{"id":"822567","nombre":"Santa Rosa de Calchines"},"nombre":"LOS ZAPALLOS","provincia":{"id":"82","nombre":"Santa Fe"}},{"categoria":"Localidad simple","centroide":{"lat":-32.714729723115,"lon":-61.022607356877},"departamento":{"id":"82056","nombre":"Iriondo"},"id":"82056090000","localidad_censal":{"id":"82056090","nombre":"Lucio V. L\u00f3pez"},"municipio":{"id":"822910","nombre":"Lucio V. L\u00f3pez"},"nombre":"LUCIO V. LOPEZ","provincia":{"id":"82","nombre":"Santa Fe"}},{"categoria":"Localidad simple","centroide":{"lat":-32.784870422621,"lon":-60.907637961408},"departamento":{"id":"82119","nombre":"San Lorenzo"},"id":"82119070000","localidad_censal":{"id":"82119070","nombre":"Luis Palacios"},"municipio":{"id":"824002","nombre":"Luis Palacios"},"nombre":"LUIS PALACIOS","provincia":{"id":"82","nombre":"Santa Fe"}},{"categoria":"Localidad simple","centroide":{"lat":-32.458765255306,"lon":-60.893112647564},"departamento":{"id":"82105","nombre":"San Jer\u00f3nimo"},"id":"82105190000","localidad_censal":{"id":"82105190","nombre":"Maciel"},"municipio":{"id":"823820","nombre":"Maciel"},"nombre":"MACIEL","provincia":{"id":"82","nombre":"Santa Fe"}},{"categoria":"Localidad simple","centroide":{"lat":-33.724423630842,"lon":-62.247839185632},"departamento":{"id":"82042","nombre":"General L\u00f3pez"},"id":"82042170000","localidad_censal":{"id":"82042170","nombre":"Maggiolo"},"municipio":{"id":"822679","nombre":"Maggiolo"},"nombre":"MAGGIOLO","provincia":{"id":"82","nombre":"Santa Fe"}},{"categoria":"Localidad simple","centroide":{"lat":-29.35067551845,"lon":-59.970588310942},"departamento":{"id":"82049","nombre":"General Obligado"},"id":"82049150000","localidad_censal":{"id":"82049150","nombre":"Malabrigo"},"municipio":{"id":"820105","nombre":"Malabrigo"},"nombre":"MALABRIGO","provincia":{"id":"82","nombre":"Santa Fe"}},{"categoria":"Localidad simple","centroide":{"lat":-30.581949305512,"lon":-60.469386043636},"departamento":{"id":"82112","nombre":"San Justo"},"id":"82112080000","localidad_censal":{"id":"82112080","nombre":"Marcelino Escalada"},"municipio":{"id":"823918","nombre":"Marcelino Escalada"},"nombre":"MARCELINO ESCALADA","provincia":{"id":"82","nombre":"Santa Fe"}},{"categoria":"Localidad simple","centroide":{"lat":-29.691087958764,"lon":-60.252465268444},"departamento":{"id":"82133","nombre":"Vera"},"id":"82133110000","localidad_censal":{"id":"82133110","nombre":"Margarita"},"municipio":{"id":"824191","nombre":"Margarita"},"nombre":"MARGARITA","provincia":{"id":"82","nombre":"Santa Fe"}},{"categoria":"Localidad simple","centroide":{"lat":-31.676627573626,"lon":-61.753600977439},"departamento":{"id":"82021","nombre":"Castellanos"},"id":"82021250000","localidad_censal":{"id":"82021250","nombre":"Mar\u00eda Juana"},"municipio":{"id":"822294","nombre":"Mar\u00eda Juana"},"nombre":"MARIA JUANA","provincia":{"id":"82","nombre":"Santa Fe"}},{"categoria":"Localidad simple","centroide":{"lat":-31.012644048152,"lon":-60.91143274925},"departamento":{"id":"82070","nombre":"Las Colonias"},"id":"82070140000","localidad_censal":{"id":"82070140","nombre":"Mar\u00eda Luisa"},"municipio":{"id":"823134","nombre":"Mar\u00eda Luisa"},"nombre":"MARIA LUISA","provincia":{"id":"82","nombre":"Santa Fe"}},{"categoria":"Localidad simple","centroide":{"lat":-32.265485668726,"lon":-61.901025324899},"departamento":{"id":"82126","nombre":"San Mart\u00edn"},"id":"82126120000","localidad_censal":{"id":"82126120","nombre":"Mar\u00eda Susana"},"municipio":{"id":"824114","nombre":"Mar\u00eda Susana"},"nombre":"MARIA SUSANA","provincia":{"id":"82","nombre":"Santa Fe"}},{"categoria":"Localidad simple","centroide":{"lat":-34.006284982856,"lon":-61.900439675435},"departamento":{"id":"82042","nombre":"General L\u00f3pez"},"id":"82042180000","localidad_censal":{"id":"82042180","nombre":"Mar\u00eda Teresa"},"municipio":{"id":"822686","nombre":"Mar\u00eda Teresa"},"nombre":"MARIA TERESA","provincia":{"id":"82","nombre":"Santa Fe"}},{"categoria":"Localidad simple","centroide":{"lat":-31.793216088062,"lon":-60.981805978484},"departamento":{"id":"82070","nombre":"Las Colonias"},"id":"82070150000","localidad_censal":{"id":"82070150","nombre":"Matilde"},"municipio":{"id":"823141","nombre":"Matilde"},"nombre":"MATILDE","provincia":{"id":"82","nombre":"Santa Fe"}},{"categoria":"Localidad simple","centroide":{"lat":-33.485143947494,"lon":-60.956788580982},"departamento":{"id":"82028","nombre":"Villa Constituci\u00f3n"},"id":"82028140000","localidad_censal":{"id":"82028140","nombre":"M\u00e1ximo Paz"},"municipio":{"id":"822483","nombre":"M9Ximo Paz"},"nombre":"MAXIMO PAZ","provincia":{"id":"82","nombre":"Santa Fe"}},{"categoria":"Localidad simple","centroide":{"lat":-33.661914426223,"lon":-61.457688740809},"departamento":{"id":"82042","nombre":"General L\u00f3pez"},"id":"82042190000","localidad_censal":{"id":"82042190","nombre":"Melincu\u00e9"},"municipio":{"id":"822693","nombre":"Melincu\u00e9"},"nombre":"MELINCUE","provincia":{"id":"82","nombre":"Santa Fe"}},{"categoria":"Localidad simple","centroide":{"lat":-33.52995026204,"lon":-61.466206873128},"departamento":{"id":"82042","nombre":"General L\u00f3pez"},"id":"82042200000","localidad_censal":{"id":"82042200","nombre":"Miguel Torres"},"municipio":{"id":"822700","nombre":"Miguel Torres"},"nombre":"MIGUEL TORRES","provincia":{"id":"82","nombre":"Santa Fe"}},{"categoria":"Localidad simple","centroide":{"lat":-30.718200870261,"lon":-61.469140085345},"departamento":{"id":"82091","nombre":"San Crist\u00f3bal"},"id":"82091180000","localidad_censal":{"id":"82091180","nombre":"Mois\u00e9s Ville"},"municipio":{"id":"823603","nombre":"Mois\u00e9s Ville"},"nombre":"MOISES VILLE","provincia":{"id":"82","nombre":"Santa Fe"}},{"categoria":"Localidad simple","centroide":{"lat":-30.490135992235,"lon":-61.634822469517},"departamento":{"id":"82091","nombre":"San Crist\u00f3bal"},"id":"82091190000","localidad_censal":{"id":"82091190","nombre":"Monigotes"},"municipio":{"id":"823610","nombre":"Monigotes"},"nombre":"MONIGOTES","provincia":{"id":"82","nombre":"Santa Fe"}},{"categoria":"Localidad simple","centroide":{"lat":-32.358735658961,"lon":-60.942904301012},"departamento":{"id":"82105","nombre":"San Jer\u00f3nimo"},"id":"82105200000","localidad_censal":{"id":"82105200","nombre":"Monje"},"municipio":{"id":"823827","nombre":"Monje"},"nombre":"MONJE","provincia":{"id":"82","nombre":"Santa Fe"}},{"categoria":"Localidad simple","centroide":{"lat":-33.080007399337,"lon":-60.635522668112},"departamento":{"id":"82084","nombre":"Rosario"},"id":"82084200000","localidad_censal":{"id":"82084200","nombre":"Monte Flores"},"municipio":{"id":"823372","nombre":"Alvear"},"nombre":"MONTE FLORES","provincia":{"id":"82","nombre":"Santa Fe"}},{"categoria":"Localidad simple","centroide":{"lat":-31.518486432759,"lon":-60.678099793743},"departamento":{"id":"82063","nombre":"La Capital"},"id":"82063100000","localidad_censal":{"id":"82063100","nombre":"Monte Vera"},"municipio":{"id":"823001","nombre":"Monte Vera"},"nombre":"MONTE VERA","provincia":{"id":"82","nombre":"Santa Fe"}},{"categoria":"Localidad simple","centroide":{"lat":-29.667869822671,"lon":-61.867108287483},"departamento":{"id":"82077","nombre":"9 de Julio"},"id":"82077050000","localidad_censal":{"id":"82077050","nombre":"Montefiore"},"municipio":{"id":"823316","nombre":"Montefiore"},"nombre":"MONTEFIORE","provincia":{"id":"82","nombre":"Santa Fe"}},{"categoria":"Localidad simple","centroide":{"lat":-32.567997020224,"lon":-61.768076235203},"departamento":{"id":"82007","nombre":"Belgrano"},"id":"82007050000","localidad_censal":{"id":"82007050","nombre":"Montes de Oca"},"municipio":{"id":"822014","nombre":"Montes de Oca"},"nombre":"MONTES DE OCA","provincia":{"id":"82","nombre":"Santa Fe"}},{"categoria":"Localidad simple","centroide":{"lat":-33.642862368597,"lon":-61.857797469101},"departamento":{"id":"82042","nombre":"General L\u00f3pez"},"id":"82042210000","localidad_censal":{"id":"82042210","nombre":"Murphy"},"municipio":{"id":"822707","nombre":"Murphy"},"nombre":"MURPHY","provincia":{"id":"82","nombre":"Santa Fe"}},{"categoria":"Localidad simple","centroide":{"lat":-30.37245992257,"lon":-61.13260158121},"departamento":{"id":"82091","nombre":"San Crist\u00f3bal"},"id":"82091200000","localidad_censal":{"id":"82091200","nombre":"\u00d1anducita"},"municipio":{"id":"823624","nombre":"\u00d1anducita"},"nombre":"\u00d1ANDUCITA","provincia":{"id":"82","nombre":"Santa Fe"}},{"categoria":"Localidad simple","centroide":{"lat":-30.951076187335,"lon":-60.468210221144},"departamento":{"id":"82112","nombre":"San Justo"},"id":"82112090000","localidad_censal":{"id":"82112090","nombre":"Nar\u00e9"},"municipio":{"id":"823925","nombre":"Nar\u00e9"},"nombre":"NARE","provincia":{"id":"82","nombre":"Santa Fe"}},{"categoria":"Localidad simple","centroide":{"lat":-31.267075451536,"lon":-60.762135539853},"departamento":{"id":"82063","nombre":"La Capital"},"id":"82063110000","localidad_censal":{"id":"82063110","nombre":"Nelson"},"municipio":{"id":"823008","nombre":"Nelson"},"nombre":"NELSON","provincia":{"id":"82","nombre":"Santa Fe"}},{"categoria":"Localidad simple","centroide":{"lat":-31.118904681986,"lon":-61.515198292985},"departamento":{"id":"82021","nombre":"Castellanos"},"id":"82021260000","localidad_censal":{"id":"82021260","nombre":"Nueva Lehmann"},"municipio":{"id":"822287","nombre":"Lehmann"},"nombre":"NUEVA LEHMANN","provincia":{"id":"82","nombre":"Santa Fe"}},{"categoria":"Localidad simple","centroide":{"lat":-31.346882383541,"lon":-61.235725734005},"departamento":{"id":"82070","nombre":"Las Colonias"},"id":"82070160000","localidad_censal":{"id":"82070160","nombre":"Nuevo Torino"},"municipio":{"id":"823148","nombre":"Nuevo Torino"},"nombre":"NUEVO TORINO","provincia":{"id":"82","nombre":"Santa Fe"}},{"categoria":"Localidad simple","centroide":{"lat":-32.575821524852,"lon":-60.855351533151},"departamento":{"id":"82056","nombre":"Iriondo"},"id":"82056100000","localidad_censal":{"id":"82056100","nombre":"Oliveros"},"municipio":{"id":"822917","nombre":"Oliveros"},"nombre":"OLIVEROS","provincia":{"id":"82","nombre":"Santa Fe"}},{"categoria":"Localidad simple","centroide":{"lat":-30.710669405135,"lon":-61.623695204873},"departamento":{"id":"82091","nombre":"San Crist\u00f3bal"},"id":"82091210000","localidad_censal":{"id":"82091210","nombre":"Palacios"},"municipio":{"id":"823631","nombre":"Palacios"},"nombre":"PALACIOS","provincia":{"id":"82","nombre":"Santa Fe"}},{"categoria":"Localidad simple","centroide":{"lat":-29.10976520451,"lon":-60.239129773845},"departamento":{"id":"82133","nombre":"Vera"},"id":"82133120000","localidad_censal":{"id":"82133120","nombre":"Paraje 29"},"municipio":{"id":"824149","nombre":"Fort\u00edn Olmos"},"nombre":"PARAJE 29","provincia":{"id":"82","nombre":"Santa Fe"}},{"categoria":"Localidad simple","centroide":{"lat":-31.567299963712,"lon":-60.661746618579},"departamento":{"id":"82063","nombre":"La Capital"},"id":"82063120000","localidad_censal":{"id":"82063120","nombre":"Paraje Chaco Chico"},"municipio":{"id":"823001","nombre":"Monte Vera"},"nombre":"PARAJE CHACO CHICO","provincia":{"id":"82","nombre":"Santa Fe"}},{"categoria":"Localidad simple","centroide":{"lat":-31.51779744352,"lon":-60.611516006924},"departamento":{"id":"82063","nombre":"La Capital"},"id":"82063130000","localidad_censal":{"id":"82063130","nombre":"Paraje La Costa"},"municipio":{"id":"823001","nombre":"Monte Vera"},"nombre":"PARAJE LA COSTA","provincia":{"id":"82","nombre":"Santa Fe"}},{"categoria":"Localidad simple","centroide":{"lat":-28.871662388511,"lon":-59.86560439575},"departamento":{"id":"82049","nombre":"General Obligado"},"id":"82049160000","localidad_censal":{"id":"82049160","nombre":"Paraje San Manuel"},"municipio":{"id":"822819","nombre":"La Sarita"},"nombre":"PARAJE SAN MANUEL","provincia":{"id":"82","nombre":"Santa Fe"}},{"categoria":"Localidad simple","centroide":{"lat":-33.243075480542,"lon":-60.406275793509},"departamento":{"id":"82028","nombre":"Villa Constituci\u00f3n"},"id":"82028150000","localidad_censal":{"id":"82028150","nombre":"Pav\u00f3n"},"municipio":{"id":"822490","nombre":"Pav\u00f3n"},"nombre":"PAVON","provincia":{"id":"82","nombre":"Santa Fe"}},{"categoria":"Localidad simple","centroide":{"lat":-33.313417393344,"lon":-60.824975894466},"departamento":{"id":"82028","nombre":"Villa Constituci\u00f3n"},"id":"82028160000","localidad_censal":{"id":"82028160","nombre":"Pav\u00f3n Arriba"},"municipio":{"id":"822497","nombre":"Pav\u00f3n Arriba"},"nombre":"PAVON ARRIBA","provincia":{"id":"82","nombre":"Santa Fe"}},{"categoria":"Localidad simple","centroide":{"lat":-30.03847434259,"lon":-60.315243128844},"departamento":{"id":"82112","nombre":"San Justo"},"id":"82112100000","localidad_censal":{"id":"82112100","nombre":"Pedro G\u00f3mez Cello"},"municipio":{"id":"823932","nombre":"Pedro G\u00f3mez Cello"},"nombre":"PEDRO GOMEZ CELLO","provincia":{"id":"82","nombre":"Santa Fe"}},{"categoria":"Componente de localidad compuesta","centroide":{"lat":-32.99881116903,"lon":-60.772159210106},"departamento":{"id":"82084","nombre":"Rosario"},"id":"82084210000","localidad_censal":{"id":"82084210","nombre":"P\u00e9rez"},"municipio":{"id":"820203","nombre":"P\u00e9rez"},"nombre":"PEREZ","provincia":{"id":"82","nombre":"Santa Fe"}},{"categoria":"Localidad simple","centroide":{"lat":-33.54113785984,"lon":-60.804329558703},"departamento":{"id":"82028","nombre":"Villa Constituci\u00f3n"},"id":"82028170000","localidad_censal":{"id":"82028170","nombre":"Peyrano"},"municipio":{"id":"822504","nombre":"Peyrano"},"nombre":"PEYRANO","provincia":{"id":"82","nombre":"Santa Fe"}},{"categoria":"Localidad simple","centroide":{"lat":-32.145866524136,"lon":-61.981120218181},"departamento":{"id":"82126","nombre":"San Mart\u00edn"},"id":"82126130000","localidad_censal":{"id":"82126130","nombre":"Piamonte"},"municipio":{"id":"824121","nombre":"Piamonte"},"nombre":"PIAMONTE","provincia":{"id":"82","nombre":"Santa Fe"}},{"categoria":"Localidad simple","centroide":{"lat":-31.442015817123,"lon":-61.260024961406},"departamento":{"id":"82070","nombre":"Las Colonias"},"id":"82070170000","localidad_censal":{"id":"82070170","nombre":"Pilar"},"municipio":{"id":"823155","nombre":"Pilar"},"nombre":"PILAR","provincia":{"id":"82","nombre":"Santa Fe"}},{"categoria":"Localidad simple","centroide":{"lat":-33.111207101078,"lon":-60.796496163063},"departamento":{"id":"82084","nombre":"Rosario"},"id":"82084220000","localidad_censal":{"id":"82084220","nombre":"Pi\u00f1ero"},"municipio":{"id":"823421","nombre":"Pi\u00f1ero"},"nombre":"PI\u00d1ERO","provincia":{"id":"82","nombre":"Santa Fe"}},{"categoria":"Localidad simple","centroide":{"lat":-31.454550519884,"lon":-61.707475622815},"departamento":{"id":"82021","nombre":"Castellanos"},"id":"82021270000","localidad_censal":{"id":"82021270","nombre":"Plaza Clucellas"},"municipio":{"id":"822308","nombre":"Plaza Clucellas"},"nombre":"PLAZA CLUCELLAS","provincia":{"id":"82","nombre":"Santa Fe"}},{"categoria":"Localidad simple","centroide":{"lat":-31.797483488876,"lon":-61.011167823269},"departamento":{"id":"82070","nombre":"Las Colonias"},"id":"82070180000","localidad_censal":{"id":"82070180","nombre":"Plaza Matilde"},"municipio":{"id":"823141","nombre":"Matilde"},"nombre":"PLAZA MATILDE","provincia":{"id":"82","nombre":"Santa Fe"}},{"categoria":"Localidad simple","centroide":{"lat":-31.32510495159,"lon":-61.677737332402},"departamento":{"id":"82021","nombre":"Castellanos"},"id":"82021280000","localidad_censal":{"id":"82021280","nombre":"Plaza Saguier"},"municipio":{"id":"822336","nombre":"Saguier"},"nombre":"PLAZA SAGUIER","provincia":{"id":"82","nombre":"Santa Fe"}},{"categoria":"Localidad simple","centroide":{"lat":-28.939942303118,"lon":-61.705599974339},"departamento":{"id":"82077","nombre":"9 de Julio"},"id":"82077060000","localidad_censal":{"id":"82077060","nombre":"Pozo Borrado"},"municipio":{"id":"823323","nombre":"Pozo Borrado"},"nombre":"POZO BORRADO","provincia":{"id":"82","nombre":"Santa Fe"}},{"categoria":"Localidad simple","centroide":{"lat":-28.945130601732,"lon":-60.252003572617},"departamento":{"id":"82133","nombre":"Vera"},"id":"82133130000","localidad_censal":{"id":"82133130","nombre":"Pozo de los Indios"},"municipio":{"id":"824156","nombre":"Garabato"},"nombre":"POZO DE LOS INDIOS","provincia":{"id":"82","nombre":"Santa Fe"}},{"categoria":"Entidad","centroide":{"lat":-31.229697905815,"lon":-61.610103624064},"departamento":{"id":"82021","nombre":"Castellanos"},"id":"82021290002","localidad_censal":{"id":"82021290","nombre":"Presidente Roca"},"municipio":{"id":"822315","nombre":"Presidente Roca"},"nombre":"PRESIDENTE ROCA","provincia":{"id":"82","nombre":"Santa Fe"}},{"categoria":"Localidad simple","centroide":{"lat":-31.13976895458,"lon":-60.990254156931},"departamento":{"id":"82070","nombre":"Las Colonias"},"id":"82070190000","localidad_censal":{"id":"82070190","nombre":"Progreso"},"municipio":{"id":"823162","nombre":"Progreso"},"nombre":"PROGRESO","provincia":{"id":"82","nombre":"Santa Fe"}},{"categoria":"Localidad simple","centroide":{"lat":-30.984586836906,"lon":-61.021828149881},"departamento":{"id":"82070","nombre":"Las Colonias"},"id":"82070200000","localidad_censal":{"id":"82070200","nombre":"Providencia"},"municipio":{"id":"823169","nombre":"Providencia"},"nombre":"PROVIDENCIA","provincia":{"id":"82","nombre":"Santa Fe"}},{"categoria":"Localidad simple","centroide":{"lat":-32.671791416497,"lon":-60.87618067364},"departamento":{"id":"82056","nombre":"Iriondo"},"id":"82056110000","localidad_censal":{"id":"82056110","nombre":"Pueblo Andino"},"municipio":{"id":"822924","nombre":"Pueblo Andino"},"nombre":"PUEBLO ANDINO","provincia":{"id":"82","nombre":"Santa Fe"}},{"categoria":"Localidad simple","centroide":{"lat":-33.07309694037,"lon":-60.578919542928},"departamento":{"id":"82084","nombre":"Rosario"},"id":"82084230000","localidad_censal":{"id":"82084230","nombre":"Pueblo Esther"},"municipio":{"id":"823428","nombre":"Pueblo Esther"},"nombre":"PUEBLO ESTHER","provincia":{"id":"82","nombre":"Santa Fe"}},{"categoria":"Localidad simple","centroide":{"lat":-31.040974547572,"lon":-61.889882637034},"departamento":{"id":"82021","nombre":"Castellanos"},"id":"82021300000","localidad_censal":{"id":"82021300","nombre":"Pueblo Marini"},"municipio":{"id":"822322","nombre":"Pueblo Marini"},"nombre":"PUEBLO MARINI","provincia":{"id":"82","nombre":"Santa Fe"}},{"categoria":"Localidad simple","centroide":{"lat":-33.174483350433,"lon":-60.897139840099},"departamento":{"id":"82084","nombre":"Rosario"},"id":"82084240000","localidad_censal":{"id":"82084240","nombre":"Pueblo Mu\u00f1\u00f3z"},"municipio":{"id":"823435","nombre":"Pueblo Mu\u00f1oz"},"nombre":"PUEBLO MU\u00d1OZ","provincia":{"id":"82","nombre":"Santa Fe"}},{"categoria":"Localidad simple","centroide":{"lat":-29.283815806359,"lon":-60.403856405154},"departamento":{"id":"82133","nombre":"Vera"},"id":"82133140000","localidad_censal":{"id":"82133140","nombre":"Pueblo Santa Luc\u00eda"},"municipio":{"id":"820336","nombre":"Vera"},"nombre":"PUEBLO SANTA LUCIA","provincia":{"id":"82","nombre":"Santa Fe"}},{"categoria":"Localidad simple","centroide":{"lat":-33.26452999582,"lon":-60.708334585999},"departamento":{"id":"82084","nombre":"Rosario"},"id":"82084250000","localidad_censal":{"id":"82084250","nombre":"Pueblo Uranga"},"municipio":{"id":"823449","nombre":"Uranga"},"nombre":"PUEBLO URANGA","provincia":{"id":"82","nombre":"Santa Fe"}},{"categoria":"Localidad simple","centroide":{"lat":-32.244721828124,"lon":-60.923983978421},"departamento":{"id":"82105","nombre":"San Jer\u00f3nimo"},"id":"82105210000","localidad_censal":{"id":"82105210","nombre":"Puerto Arag\u00f3n"},"municipio":{"id":"823729","nombre":"Barrancas"},"nombre":"PUERTO ARAGON","provincia":{"id":"82","nombre":"Santa Fe"}},{"categoria":"Localidad simple","centroide":{"lat":-33.13151134964,"lon":-60.507888470518},"departamento":{"id":"82084","nombre":"Rosario"},"id":"82084260000","localidad_censal":{"id":"82084260","nombre":"Puerto Arroyo Seco"},"municipio":{"id":"820182","nombre":"Arroyo Seco"},"nombre":"PUERTO ARROYO SECO","provincia":{"id":"82","nombre":"Santa Fe"}},{"categoria":"Componente de localidad compuesta","centroide":{"lat":-32.719002595874,"lon":-60.733492538832},"departamento":{"id":"82119","nombre":"San Lorenzo"},"id":"82119080000","localidad_censal":{"id":"82119080","nombre":"Puerto General San Mart\u00edn"},"municipio":{"id":null,"nombre":null},"nombre":"PUERTO GENERAL SAN MARTIN","provincia":{"id":"82","nombre":"Santa Fe"}},{"categoria":"Localidad simple","centroide":{"lat":-29.2349873699,"lon":-59.580269178989},"departamento":{"id":"82049","nombre":"General Obligado"},"id":"82049170000","localidad_censal":{"id":"82049170","nombre":"Puerto Reconquista"},"municipio":{"id":"820112","nombre":"Reconquista"},"nombre":"PUERTO RECONQUISTA","provincia":{"id":"82","nombre":"Santa Fe"}},{"categoria":"Localidad simple","centroide":{"lat":-33.01957335431,"lon":-61.043831649082},"departamento":{"id":"82119","nombre":"San Lorenzo"},"id":"82119090000","localidad_censal":{"id":"82119090","nombre":"Pujato"},"municipio":{"id":"824009","nombre":"Pujato"},"nombre":"PUJATO","provincia":{"id":"82","nombre":"Santa Fe"}},{"categoria":"Localidad simple","centroide":{"lat":-31.24824824132,"lon":-61.499811793987},"departamento":{"id":"82021","nombre":"Castellanos"},"id":"82021310000","localidad_censal":{"id":"82021310","nombre":"Rafaela"},"municipio":{"id":"820042","nombre":"Rafaela"},"nombre":"RAFAELA","provincia":{"id":"82","nombre":"Santa Fe"}},{"categoria":"Localidad simple","centroide":{"lat":-30.675815338497,"lon":-60.499555379407},"departamento":{"id":"82112","nombre":"San Justo"},"id":"82112110000","localidad_censal":{"id":"82112110","nombre":"Ramay\u00f3n"},"municipio":{"id":"823939","nombre":"Ramay\u00f3n"},"nombre":"RAMAYON","provincia":{"id":"82","nombre":"Santa Fe"}},{"categoria":"Localidad simple","centroide":{"lat":-31.093704176684,"lon":-61.903231867357},"departamento":{"id":"82021","nombre":"Castellanos"},"id":"82021320000","localidad_censal":{"id":"82021320","nombre":"Ramona"},"municipio":{"id":"822329","nombre":"Ramona"},"nombre":"RAMONA","provincia":{"id":"82","nombre":"Santa Fe"}},{"categoria":"Componente de localidad compuesta","centroide":{"lat":-29.145146838926,"lon":-59.651073056358},"departamento":{"id":"82049","nombre":"General Obligado"},"id":"82049180000","localidad_censal":{"id":"82049180","nombre":"Reconquista"},"municipio":{"id":"820112","nombre":"Reconquista"},"nombre":"RECONQUISTA","provincia":{"id":"82","nombre":"Santa Fe"}},{"categoria":"Componente de localidad compuesta","centroide":{"lat":-31.49358075604,"lon":-60.735411088708},"departamento":{"id":"82063","nombre":"La Capital"},"id":"82063140000","localidad_censal":{"id":"82063140","nombre":"Recreo"},"municipio":{"id":"820144","nombre":"Recreo"},"nombre":"RECREO","provincia":{"id":"82","nombre":"Santa Fe"}},{"categoria":"Localidad simple","centroide":{"lat":-32.773680549137,"lon":-60.786927658223},"departamento":{"id":"82119","nombre":"San Lorenzo"},"id":"82119100000","localidad_censal":{"id":"82119100","nombre":"Ricardone"},"municipio":{"id":"824016","nombre":"Ricardone"},"nombre":"RICARDONE","provincia":{"id":"82","nombre":"Santa Fe"}},{"categoria":"Entidad","centroide":{"lat":-31.564432680211,"lon":-60.414954582383},"departamento":{"id":"82063","nombre":"La Capital"},"id":"82063030002","localidad_censal":{"id":"82063030","nombre":"Arroyo Leyes"},"municipio":{"id":"822959","nombre":"Arroyo Leyes"},"nombre":"RINCON NORTE","provincia":{"id":"82","nombre":"Santa Fe"}},{"categoria":"Localidad simple","centroide":{"lat":-31.528617937584,"lon":-60.475666234623},"departamento":{"id":"82063","nombre":"La Capital"},"id":"82063150000","localidad_censal":{"id":"82063150","nombre":"Rinc\u00f3n Potrero"},"municipio":{"id":"822959","nombre":"Arroyo Leyes"},"nombre":"RINCON POTRERO","provincia":{"id":"82","nombre":"Santa Fe"}},{"categoria":"Componente de localidad compuesta","centroide":{"lat":-32.902387930242,"lon":-60.910882795065},"departamento":{"id":"82119","nombre":"San Lorenzo"},"id":"82119110000","localidad_censal":{"id":"82119110","nombre":"Rold\u00e1n"},"municipio":{"id":"820294","nombre":"Rold\u00e1n"},"nombre":"ROLDAN","provincia":{"id":"82","nombre":"Santa Fe"}},{"categoria":"Localidad simple","centroide":{"lat":-29.501829452781,"lon":-59.748593453506},"departamento":{"id":"82098","nombre":"San Javier"},"id":"82098050000","localidad_censal":{"id":"82098050","nombre":"Romang"},"municipio":{"id":"823715","nombre":"Romang"},"nombre":"ROMANG","provincia":{"id":"82","nombre":"Santa Fe"}},{"categoria":"Componente de localidad compuesta","centroide":{"lat":-32.953814257521,"lon":-60.651537935452},"departamento":{"id":"82084","nombre":"Rosario"},"id":"82084270000","localidad_censal":{"id":"82084270","nombre":"Rosario"},"municipio":{"id":null,"nombre":null},"nombre":"ROSARIO","provincia":{"id":"82","nombre":"Santa Fe"}},{"categoria":"Localidad simple","centroide":{"lat":-33.335855095367,"lon":-60.460874054837},"departamento":{"id":"82028","nombre":"Villa Constituci\u00f3n"},"id":"82028180000","localidad_censal":{"id":"82028180","nombre":"Rueda"},"municipio":{"id":"822511","nombre":"Rueda"},"nombre":"RUEDA","provincia":{"id":"82","nombre":"Santa Fe"}},{"categoria":"Localidad simple","centroide":{"lat":-34.263609841403,"lon":-62.711703884493},"departamento":{"id":"82042","nombre":"General L\u00f3pez"},"id":"82042220000","localidad_censal":{"id":"82042220","nombre":"Rufino"},"municipio":{"id":"820070","nombre":"Rufino"},"nombre":"RUFINO","provincia":{"id":"82","nombre":"Santa Fe"}},{"categoria":"Localidad simple","centroide":{"lat":-31.572151395156,"lon":-61.378223111079},"departamento":{"id":"82070","nombre":"Las Colonias"},"id":"82070210000","localidad_censal":{"id":"82070210","nombre":"Sa Pereyra"},"municipio":{"id":"823190","nombre":"Sa Pereyra"},"nombre":"SA PEREYRA","provincia":{"id":"82","nombre":"Santa Fe"}},{"categoria":"Localidad simple","centroide":{"lat":-30.922984997123,"lon":-60.048115458867},"departamento":{"id":"82035","nombre":"Garay"},